[{"teleride_number":"3479","stop_name":"WB 2 AV @ 9 ST NW","status":"ACTIVE","point":{"type":"Point","coordinates":[-114.0836641,51.0548258]},":@computed_region_4a3i_ccfj":"2",":@computed_region_p8tp_5dkv":"7",":@computed_region_4b54_tmc4":"7",":@computed_region_kxmf_bzkv":"62"}
,{"teleride_number":"6132","stop_name":"SB 18 ST SE @ 76 AV SE","status":"ACTIVE","point":{"type":"Point","coordinates":[-114.0160226,50.9846498]},":@computed_region_4a3i_ccfj":"3",":@computed_region_p8tp_5dkv":"11",":@computed_region_4b54_tmc4":"10",":@computed_region_kxmf_bzkv":"28"}
,{"teleride_number":"4008","stop_name":"EB Sunpark PZ @ Sunpark DR SE","status":"INACTIVE","point":{"type":"Point","coordinates":[-114.05589,50.900947]},":@computed_region_4a3i_ccfj":"3",":@computed_region_p8tp_5dkv":"13",":@computed_region_4b54_tmc4":"6",":@computed_region_kxmf_bzkv":"52"}
,{"teleride_number":"7432","stop_name":"SB 14 ST NW @ Cromwell AV","status":"ACTIVE","point":{"type":"Point","coordinates":[-114.0948758,51.0857713]},":@computed_region_4a3i_ccfj":"2",":@computed_region_p8tp_5dkv":"4",":@computed_region_4b54_tmc4":"7",":@computed_region_kxmf_bzkv":"214"}
,{"teleride_number":"9543","stop_name":"SB Saddlebrook DR @ Saddlecrest BV NE","status":"INACTIVE","point":{"type":"Point","coordinates":[-113.9308076,51.1360046]},":@computed_region_4a3i_ccfj":"4",":@computed_region_p8tp_5dkv":"1",":@computed_region_4b54_tmc4":"11",":@computed_region_kxmf_bzkv":"2"}
,{"teleride_number":"6614","stop_name":"EB 32 AV NW @ 37 ST NW","status":"ACTIVE","point":{"type":"Point","coordinates":[-114.1406055,51.0813588]},":@computed_region_4a3i_ccfj":"2",":@computed_region_p8tp_5dkv":"7",":@computed_region_4b54_tmc4":"13",":@computed_region_kxmf_bzkv":"287"}
,{"teleride_number":"2889","stop_name":"WB Heritage DR @ Fraser RD SE","status":"ACTIVE","point":{"type":"Point","coordinates":[-114.0540176,50.9798284]},":@computed_region_4a3i_ccfj":"3",":@computed_region_p8tp_5dkv":"11",":@computed_region_4b54_tmc4":"10",":@computed_region_kxmf_bzkv":"284"}
,{"teleride_number":"9788","stop_name":"SB Bowness RD @ Bowwood DR NW","status":"ACTIVE","point":{"type":"Point","coordinates":[-114.173204,51.0797596]},":@computed_region_4a3i_ccfj":"2",":@computed_region_p8tp_5dkv":"9",":@computed_region_4b54_tmc4":"13",":@computed_region_kxmf_bzkv":"149"}
,{"teleride_number":"2894","stop_name":"EB 72 AV SE @ 57 ST SE","status":"ACTIVE","point":{"type":"Point","coordinates":[-113.9461193,50.9893785]},":@computed_region_4a3i_ccfj":"3",":@computed_region_p8tp_5dkv":"11",":@computed_region_4b54_tmc4":"10",":@computed_region_kxmf_bzkv":"73"}
,{"teleride_number":"9171","stop_name":"SB Queensland DR @ 300 Queensland PL SE","status":"ACTIVE","point":{"type":"Point","coordinates":[-114.0179335,50.9381671]},":@computed_region_4a3i_ccfj":"3",":@computed_region_p8tp_5dkv":"13",":@computed_region_4b54_tmc4":"6",":@computed_region_kxmf_bzkv":"215"}
,{"teleride_number":"7130","stop_name":"SB 53 ST @ Varsity Estates GV NW","status":"ACTIVE","point":{"type":"Point","coordinates":[-114.1646332,51.0975503]},":@computed_region_4a3i_ccfj":"2",":@computed_region_p8tp_5dkv":"9",":@computed_region_4b54_tmc4":"13",":@computed_region_kxmf_bzkv":"269"}
,{"teleride_number":"9458","stop_name":"NB Douglas Glen BV @ Douglas Glen CL SE","status":"ACTIVE","point":{"type":"Point","coordinates":[-114.0107394,50.9551007]},":@computed_region_4a3i_ccfj":"3",":@computed_region_p8tp_5dkv":"8",":@computed_region_4b54_tmc4":"4",":@computed_region_kxmf_bzkv":"268"}
,{"teleride_number":"5015","stop_name":"WB 3 AV NW @ 32 ST NW","status":"ACTIVE","point":{"type":"Point","coordinates":[-114.134535,51.0568973]},":@computed_region_4a3i_ccfj":"2",":@computed_region_p8tp_5dkv":"7",":@computed_region_4b54_tmc4":"7",":@computed_region_kxmf_bzkv":"91"}
,{"teleride_number":"5272","stop_name":"SB 4 ST NE @ S. of 60 AV NE","status":"ACTIVE","point":{"type":"Point","coordinates":[-114.0552709,51.1042355]},":@computed_region_4a3i_ccfj":"4",":@computed_region_p8tp_5dkv":"4",":@computed_region_4b54_tmc4":"2",":@computed_region_kxmf_bzkv":"192"}
,{"teleride_number":"7331","stop_name":"EB Berkley DR @ Berwick RD NW","status":"ACTIVE","point":{"type":"Point","coordinates":[-114.0892926,51.1280337]},":@computed_region_4a3i_ccfj":"2",":@computed_region_p8tp_5dkv":"4",":@computed_region_4b54_tmc4":"2",":@computed_region_kxmf_bzkv":"273"}
,{"teleride_number":"6121","stop_name":"Heritage LRT Station","status":"ACTIVE","point":{"type":"Point","coordinates":[-114.0745977,50.9793458]},":@computed_region_4a3i_ccfj":"1",":@computed_region_p8tp_5dkv":"5",":@computed_region_4b54_tmc4":"8",":@computed_region_kxmf_bzkv":"195"}
,{"teleride_number":"3496","stop_name":"North Pointe Terminal E","status":"ACTIVE","point":{"type":"Point","coordinates":[-114.0691885,51.1567607]},":@computed_region_4a3i_ccfj":"4",":@computed_region_p8tp_5dkv":"12",":@computed_region_4b54_tmc4":"11",":@computed_region_kxmf_bzkv":"264"}
,{"teleride_number":"6062","stop_name":"WB Lake Bonavista DR @ Lake Erie RD SE","status":"ACTIVE","point":{"type":"Point","coordinates":[-114.0562137,50.9456156]},":@computed_region_4a3i_ccfj":"3",":@computed_region_p8tp_5dkv":"13",":@computed_region_4b54_tmc4":"6",":@computed_region_kxmf_bzkv":"267"}
,{"teleride_number":"5173","stop_name":"EB Canada Olympic RD @ Canada Olympic GT SW","status":"ACTIVE","point":{"type":"Point","coordinates":[-114.2172628,51.0839206]},":@computed_region_4a3i_ccfj":"1",":@computed_region_p8tp_5dkv":"14",":@computed_region_4b54_tmc4":"13",":@computed_region_kxmf_bzkv":"4"}
,{"teleride_number":"9212","stop_name":"SB Evergreen DR @ Evergreen CV SW","status":"ACTIVE","point":{"type":"Point","coordinates":[-114.1028946,50.9248901]},":@computed_region_4a3i_ccfj":"1",":@computed_region_p8tp_5dkv":"6",":@computed_region_4b54_tmc4":"5",":@computed_region_kxmf_bzkv":"39"}
,{"teleride_number":"5610","stop_name":"WB 6 AV SE @ 5 ST SE","status":"ACTIVE","point":{"type":"Point","coordinates":[-114.0510015,51.0471902]},":@computed_region_4a3i_ccfj":"3",":@computed_region_p8tp_5dkv":"7",":@computed_region_4b54_tmc4":"7",":@computed_region_kxmf_bzkv":"65"}
,{"teleride_number":"2126","stop_name":"EB Cranston DR @ W. Leg Cranridge HT SE","status":"ACTIVE","point":{"type":"Point","coordinates":[-113.9860145,50.8828739]},":@computed_region_4a3i_ccfj":"3",":@computed_region_p8tp_5dkv":"8",":@computed_region_4b54_tmc4":"4",":@computed_region_kxmf_bzkv":"294"}
,{"teleride_number":"4088","stop_name":"WB Martindale BV @ Martha's WY NE","status":"ACTIVE","point":{"type":"Point","coordinates":[-113.961593,51.1226781]},":@computed_region_4a3i_ccfj":"4",":@computed_region_p8tp_5dkv":"1",":@computed_region_4b54_tmc4":"9",":@computed_region_kxmf_bzkv":"180"}
,{"teleride_number":"8739","stop_name":"NB Centre ST N @ 25 AV N","status":"ACTIVE","point":{"type":"Point","coordinates":[-114.0624216,51.075515]},":@computed_region_4a3i_ccfj":"4",":@computed_region_p8tp_5dkv":"7",":@computed_region_4b54_tmc4":"10",":@computed_region_kxmf_bzkv":"69"}
,{"teleride_number":"5181","stop_name":"EB 12 AV SW@ 5 ST SW","status":"ACTIVE","point":{"type":"Point","coordinates":[-114.0730193,51.0416276]},":@computed_region_4a3i_ccfj":"1",":@computed_region_p8tp_5dkv":"2",":@computed_region_4b54_tmc4":"14",":@computed_region_kxmf_bzkv":"260"}
,{"teleride_number":"9872","stop_name":"EB Taravista DR @ Taracove RD NE","status":"ACTIVE","point":{"type":"Point","coordinates":[-113.9360548,51.120571]},":@computed_region_4a3i_ccfj":"4",":@computed_region_p8tp_5dkv":"1",":@computed_region_4b54_tmc4":"11",":@computed_region_kxmf_bzkv":"26"}
,{"teleride_number":"6224","stop_name":"WB Madigan DR @ Manora DR NE","status":"ACTIVE","point":{"type":"Point","coordinates":[-113.9439843,51.0633462]},":@computed_region_4a3i_ccfj":"4",":@computed_region_p8tp_5dkv":"3",":@computed_region_4b54_tmc4":"12",":@computed_region_kxmf_bzkv":"33"}
,{"teleride_number":"8657","stop_name":"EB 32 AV NW @ 39 ST NW","status":"INACTIVE","point":{"type":"Point","coordinates":[-114.1443177,51.0813687]},":@computed_region_4a3i_ccfj":"2",":@computed_region_p8tp_5dkv":"7",":@computed_region_4b54_tmc4":"13",":@computed_region_kxmf_bzkv":"155"}
,{"teleride_number":"9794","stop_name":"SB 14 ST NW @ Westmount RD","status":"ACTIVE","point":{"type":"Point","coordinates":[-114.0948275,51.0517265]},":@computed_region_4a3i_ccfj":"2",":@computed_region_p8tp_5dkv":"7",":@computed_region_4b54_tmc4":"7",":@computed_region_kxmf_bzkv":"40"}
,{"teleride_number":"7483","stop_name":"EB 34 AV NW @ W. of 71 ST NW","status":"ACTIVE","point":{"type":"Point","coordinates":[-114.1917153,51.0836781]},":@computed_region_4a3i_ccfj":"2",":@computed_region_p8tp_5dkv":"9",":@computed_region_4b54_tmc4":"13",":@computed_region_kxmf_bzkv":"149"}
,{"teleride_number":"7982","stop_name":"EB Chaparral DR @ Chapala DR SE","status":"ACTIVE","point":{"type":"Point","coordinates":[-114.029302,50.8851161]},":@computed_region_4a3i_ccfj":"3",":@computed_region_p8tp_5dkv":"13",":@computed_region_4b54_tmc4":"6",":@computed_region_kxmf_bzkv":"130"}
,{"teleride_number":"4488","stop_name":"WB 30 AV SE @ 41 ST SE","status":"ACTIVE","point":{"type":"Point","coordinates":[-113.974766,51.0269351]},":@computed_region_4a3i_ccfj":"3",":@computed_region_p8tp_5dkv":"11",":@computed_region_4b54_tmc4":"10",":@computed_region_kxmf_bzkv":"196"}
,{"teleride_number":"9759","stop_name":"WB Hidden Valley DR @ E. Leg Hidden Ranch CR NW","status":"ACTIVE","point":{"type":"Point","coordinates":[-114.1216038,51.1509377]},":@computed_region_4a3i_ccfj":"2",":@computed_region_p8tp_5dkv":"12",":@computed_region_4b54_tmc4":"2",":@computed_region_kxmf_bzkv":"25"}
,{"teleride_number":"7679","stop_name":"EB Douglasdale BV @ Douglas Woods HL SE","status":"ACTIVE","point":{"type":"Point","coordinates":[-113.9845991,50.9393792]},":@computed_region_4a3i_ccfj":"3",":@computed_region_p8tp_5dkv":"13",":@computed_region_4b54_tmc4":"4",":@computed_region_kxmf_bzkv":"268"}
,{"teleride_number":"8842","stop_name":"EB Parkdale BV @ 32 ST NW","status":"ACTIVE","point":{"type":"Point","coordinates":[-114.1337812,51.056393]},":@computed_region_4a3i_ccfj":"2",":@computed_region_p8tp_5dkv":"7",":@computed_region_4b54_tmc4":"7",":@computed_region_kxmf_bzkv":"91"}
,{"teleride_number":"5299","stop_name":"NB 1 ST SW @ 8 AV SW","status":"ACTIVE","point":{"type":"Point","coordinates":[-114.0654074,51.0452594]},":@computed_region_4a3i_ccfj":"1",":@computed_region_p8tp_5dkv":"7",":@computed_region_4b54_tmc4":"7",":@computed_region_kxmf_bzkv":"262"}
,{"teleride_number":"5486","stop_name":"WB 32 AV NW @ 37 ST NW","status":"ACTIVE","point":{"type":"Point","coordinates":[-114.1416166,51.0816354]},":@computed_region_4a3i_ccfj":"2",":@computed_region_p8tp_5dkv":"9",":@computed_region_4b54_tmc4":"13",":@computed_region_kxmf_bzkv":"269"}
,{"teleride_number":"6804","stop_name":"NB Chinook CTrain Station","status":"ACTIVE","point":{"type":"Point","coordinates":[-114.0655749,50.9974645]},":@computed_region_4a3i_ccfj":"1",":@computed_region_p8tp_5dkv":"11",":@computed_region_4b54_tmc4":"10",":@computed_region_kxmf_bzkv":"160"}
,{"teleride_number":"6642","stop_name":"SB  Douglas Woods DR @ Douglas Woods HL SE","status":"ACTIVE","point":{"type":"Point","coordinates":[-113.9901615,50.9438495]},":@computed_region_4a3i_ccfj":"3",":@computed_region_p8tp_5dkv":"13",":@computed_region_4b54_tmc4":"4",":@computed_region_kxmf_bzkv":"268"}
,{"teleride_number":"6632","stop_name":"NB Erin Woods DR @ Erin Grove BA SE","status":"ACTIVE","point":{"type":"Point","coordinates":[-113.9660384,51.0251615]},":@computed_region_4a3i_ccfj":"3",":@computed_region_p8tp_5dkv":"11",":@computed_region_4b54_tmc4":"12",":@computed_region_kxmf_bzkv":"35"}
,{"teleride_number":"8538","stop_name":"WB 17 AV SW @ 31 ST SW","status":"ACTIVE","point":{"type":"Point","coordinates":[-114.1330992,51.037865]},":@computed_region_4a3i_ccfj":"1",":@computed_region_p8tp_5dkv":"2",":@computed_region_4b54_tmc4":"14",":@computed_region_kxmf_bzkv":"198"}
,{"teleride_number":"4632","stop_name":"EB Spruce DR @ Windermere RD SW","status":"ACTIVE","point":{"type":"Point","coordinates":[-114.1572864,51.0522183]},":@computed_region_4a3i_ccfj":"1",":@computed_region_p8tp_5dkv":"2",":@computed_region_4b54_tmc4":"14",":@computed_region_kxmf_bzkv":"170"}
,{"teleride_number":"2262","stop_name":"SB  Redstone ST @  Redstone AV NE","status":"ACTIVE","point":{"type":"Point","coordinates":[-113.9614004,51.172891]},":@computed_region_4a3i_ccfj":"4",":@computed_region_p8tp_5dkv":"1",":@computed_region_4b54_tmc4":"11",":@computed_region_kxmf_bzkv":"3"}
,{"teleride_number":"2400","stop_name":"Joane Cardinal-Schubert High School","status":"ACTIVE","point":{"type":"Point","coordinates":[-113.9448711,50.8774757]},":@computed_region_4a3i_ccfj":"3",":@computed_region_p8tp_5dkv":"8",":@computed_region_4b54_tmc4":"4",":@computed_region_kxmf_bzkv":"90"}
,{"teleride_number":"8152","stop_name":"SB 52 ST NE @ S. of 32 AV NE","status":"INACTIVE","point":{"type":"Point","coordinates":[-113.9585681,51.0788746]},":@computed_region_4a3i_ccfj":"4",":@computed_region_p8tp_5dkv":"3",":@computed_region_4b54_tmc4":"9",":@computed_region_kxmf_bzkv":"34"}
,{"teleride_number":"3621","stop_name":"Somerset-Bridlewood Stn","status":"ACTIVE","point":{"type":"Point","coordinates":[-114.0699556,50.8986566]},":@computed_region_4a3i_ccfj":"1",":@computed_region_p8tp_5dkv":"6",":@computed_region_4b54_tmc4":"5",":@computed_region_kxmf_bzkv":"55"}
,{"teleride_number":"5351","stop_name":"NB 20 ST SW@ 54 AV SW","status":"ACTIVE","point":{"type":"Point","coordinates":[-114.1090971,51.0054225]},":@computed_region_4a3i_ccfj":"1",":@computed_region_p8tp_5dkv":"5",":@computed_region_4b54_tmc4":"8",":@computed_region_kxmf_bzkv":"122"}
,{"teleride_number":"9916","stop_name":"SB Nose Hill DR @ Hawkwood RD NW","status":"ACTIVE","point":{"type":"Point","coordinates":[-114.1915335,51.1306598]},":@computed_region_4a3i_ccfj":"2",":@computed_region_p8tp_5dkv":"10",":@computed_region_4b54_tmc4":"3",":@computed_region_kxmf_bzkv":"244"}
,{"teleride_number":"7112","stop_name":"WB Varsity Estates DR @ Varsity Estates GR NW","status":"ACTIVE","point":{"type":"Point","coordinates":[-114.1765011,51.1008779]},":@computed_region_4a3i_ccfj":"2",":@computed_region_p8tp_5dkv":"9",":@computed_region_4b54_tmc4":"13",":@computed_region_kxmf_bzkv":"269"}
,{"teleride_number":"6811","stop_name":"NB Franklin CTrain Station","status":"ACTIVE","point":{"type":"Point","coordinates":[-113.9946038,51.0470296]},":@computed_region_4a3i_ccfj":"3",":@computed_region_p8tp_5dkv":"11",":@computed_region_4b54_tmc4":"12",":@computed_region_kxmf_bzkv":"121"}
,{"teleride_number":"5967","stop_name":"EB Lake Sylvan DR @ Lake Michigan DR SE","status":"ACTIVE","point":{"type":"Point","coordinates":[-114.0308815,50.942743]},":@computed_region_4a3i_ccfj":"3",":@computed_region_p8tp_5dkv":"13",":@computed_region_4b54_tmc4":"6",":@computed_region_kxmf_bzkv":"175"}
,{"teleride_number":"5674","stop_name":"EB 12 AV NE @ Edmonton TR","status":"ACTIVE","point":{"type":"Point","coordinates":[-114.0553762,51.0632485]},":@computed_region_4a3i_ccfj":"4",":@computed_region_p8tp_5dkv":"11",":@computed_region_4b54_tmc4":"10",":@computed_region_kxmf_bzkv":"171"}
,{"teleride_number":"6644","stop_name":"NB 26 ST SE @ Dover Ridge DR","status":"ACTIVE","point":{"type":"Point","coordinates":[-113.9989051,51.0191297]},":@computed_region_4a3i_ccfj":"3",":@computed_region_p8tp_5dkv":"11",":@computed_region_4b54_tmc4":"10",":@computed_region_kxmf_bzkv":"196"}
,{"teleride_number":"2310","stop_name":"NB 19 ST NE @ 8 AV NE (proposed)","status":"INACTIVE","point":{"type":"Point","coordinates":[-114.0131901,51.0597306]},":@computed_region_4a3i_ccfj":"4",":@computed_region_p8tp_5dkv":"3",":@computed_region_4b54_tmc4":"12",":@computed_region_kxmf_bzkv":"140"}
,{"teleride_number":"6415","stop_name":"SB Acadia DR @ 6 ST SE","status":"ACTIVE","point":{"type":"Point","coordinates":[-114.0487858,50.9695796]},":@computed_region_4a3i_ccfj":"3",":@computed_region_p8tp_5dkv":"5",":@computed_region_4b54_tmc4":"10",":@computed_region_kxmf_bzkv":"174"}
,{"teleride_number":"8535","stop_name":"WB 17 AV SW @ 26 ST SW","status":"ACTIVE","point":{"type":"Point","coordinates":[-114.1242387,51.037881]},":@computed_region_4a3i_ccfj":"1",":@computed_region_p8tp_5dkv":"2",":@computed_region_4b54_tmc4":"14",":@computed_region_kxmf_bzkv":"198"}
,{"teleride_number":"3613","stop_name":"NB 11 ST SE @ 21 AV SE","status":"ACTIVE","point":{"type":"Point","coordinates":[-114.0366299,51.0348208]},":@computed_region_4a3i_ccfj":"3",":@computed_region_p8tp_5dkv":"11",":@computed_region_4b54_tmc4":"10",":@computed_region_kxmf_bzkv":"132"}
,{"teleride_number":"6118","stop_name":"NB Ashworth RD @ Arlington DR SE","status":"INACTIVE","point":{"type":"Point","coordinates":[-114.0513948,50.9762928]},":@computed_region_4a3i_ccfj":"3",":@computed_region_p8tp_5dkv":"5",":@computed_region_4b54_tmc4":"10",":@computed_region_kxmf_bzkv":"174"}
,{"teleride_number":"4715","stop_name":"NB 10 ST NE @ N. of 72 AV NE","status":"ACTIVE","point":{"type":"Point","coordinates":[-114.0421087,51.12129]},":@computed_region_4a3i_ccfj":"4",":@computed_region_p8tp_5dkv":"1",":@computed_region_4b54_tmc4":"11",":@computed_region_kxmf_bzkv":"111"}
,{"teleride_number":"4830","stop_name":"NB Fairmount DR @ 86 AV SE","status":"ACTIVE","point":{"type":"Point","coordinates":[-114.0598467,50.9762452]},":@computed_region_4a3i_ccfj":"3",":@computed_region_p8tp_5dkv":"5",":@computed_region_4b54_tmc4":"10",":@computed_region_kxmf_bzkv":"174"}
,{"teleride_number":"5131","stop_name":"WB 17 AV SW @ 42 ST SW","status":"ACTIVE","point":{"type":"Point","coordinates":[-114.1503162,51.0379087]},":@computed_region_4a3i_ccfj":"1",":@computed_region_p8tp_5dkv":"2",":@computed_region_4b54_tmc4":"14",":@computed_region_kxmf_bzkv":"281"}
,{"teleride_number":"5693","stop_name":"WB 66 AV SW @ Lakeview DR","status":"ACTIVE","point":{"type":"Point","coordinates":[-114.132402,50.9946368]},":@computed_region_4a3i_ccfj":"1",":@computed_region_p8tp_5dkv":"5",":@computed_region_4b54_tmc4":"8",":@computed_region_kxmf_bzkv":"129"}
,{"teleride_number":"7066","stop_name":"WB 32 AV NW @ 33 ST NW","status":"INACTIVE","point":{"type":"Point","coordinates":[-114.1347226,51.0815835]},":@computed_region_4a3i_ccfj":"2",":@computed_region_p8tp_5dkv":"9",":@computed_region_4b54_tmc4":"13",":@computed_region_kxmf_bzkv":"269"}
,{"teleride_number":"9892","stop_name":"SB Tuscany Springs BV @  S. of  Tusslewood TC NW","status":"ACTIVE","point":{"type":"Point","coordinates":[-114.2504002,51.1379438]},":@computed_region_4a3i_ccfj":"2",":@computed_region_p8tp_5dkv":"9",":@computed_region_4b54_tmc4":"13",":@computed_region_kxmf_bzkv":"158"}
,{"teleride_number":"8351","stop_name":"SB Rocky Vista DR @ Eamon RD NW","status":"ACTIVE","point":{"type":"Point","coordinates":[-114.2396898,51.1377363]},":@computed_region_4a3i_ccfj":"2",":@computed_region_p8tp_5dkv":"9",":@computed_region_4b54_tmc4":"13",":@computed_region_kxmf_bzkv":"193"}
,{"teleride_number":"7025","stop_name":"WB Hamptons BV @ Hamptons GV NW","status":"ACTIVE","point":{"type":"Point","coordinates":[-114.1563454,51.1445798]},":@computed_region_4a3i_ccfj":"2",":@computed_region_p8tp_5dkv":"10",":@computed_region_4b54_tmc4":"3",":@computed_region_kxmf_bzkv":"286"}
,{"teleride_number":"7471","stop_name":"EB Valley Ridge DR @ Valley Meadow CL NW","status":"ACTIVE","point":{"type":"Point","coordinates":[-114.2453464,51.0919509]},":@computed_region_4a3i_ccfj":"2",":@computed_region_p8tp_5dkv":"9",":@computed_region_4b54_tmc4":"13",":@computed_region_kxmf_bzkv":"47"}
,{"teleride_number":"3403","stop_name":"NB 63 ST NW @ S. of 32 AV NW","status":"INACTIVE","point":{"type":"Point","coordinates":[-114.1807206,51.0812869]},":@computed_region_4a3i_ccfj":"2",":@computed_region_p8tp_5dkv":"9",":@computed_region_4b54_tmc4":"13",":@computed_region_kxmf_bzkv":"149"}
,{"teleride_number":"3547","stop_name":"EB Royal Vista DR @ Royal Vista LI NW","status":"INACTIVE","point":{"type":"Point","coordinates":[-114.2030167,51.1504947]},":@computed_region_4a3i_ccfj":"2",":@computed_region_p8tp_5dkv":"9",":@computed_region_4b54_tmc4":"3",":@computed_region_kxmf_bzkv":"157"}
,{"teleride_number":"2455","stop_name":"EB Seton DR @ Main ST SE","status":"ACTIVE","point":{"type":"Point","coordinates":[-113.9506216,50.876724]},":@computed_region_4a3i_ccfj":"3",":@computed_region_p8tp_5dkv":"8",":@computed_region_4b54_tmc4":"4",":@computed_region_kxmf_bzkv":"229"}
,{"teleride_number":"7950","stop_name":"SB 37 ST SW @ 41 AV SW","status":"ACTIVE","point":{"type":"Point","coordinates":[-114.1413183,51.0174505]},":@computed_region_4a3i_ccfj":"1",":@computed_region_p8tp_5dkv":"14",":@computed_region_4b54_tmc4":"1",":@computed_region_kxmf_bzkv":"142"}
,{"teleride_number":"6734","stop_name":"NB Nose Hill DR @ Silver Springs BV NW","status":"ACTIVE","point":{"type":"Point","coordinates":[-114.2061093,51.1166106]},":@computed_region_4a3i_ccfj":"2",":@computed_region_p8tp_5dkv":"9",":@computed_region_4b54_tmc4":"13",":@computed_region_kxmf_bzkv":"147"}
,{"teleride_number":"5942","stop_name":"NB 49 ST NW @ 34 AV NW","status":"ACTIVE","point":{"type":"Point","coordinates":[-114.1585473,51.0845877]},":@computed_region_4a3i_ccfj":"2",":@computed_region_p8tp_5dkv":"9",":@computed_region_4b54_tmc4":"13",":@computed_region_kxmf_bzkv":"269"}
,{"teleride_number":"7817","stop_name":"EB 25 AV SW @ 1 ST SW","status":"ACTIVE","point":{"type":"Point","coordinates":[-114.0660627,51.0303803]},":@computed_region_4a3i_ccfj":"1",":@computed_region_p8tp_5dkv":"5",":@computed_region_4b54_tmc4":"14",":@computed_region_kxmf_bzkv":"297"}
,{"teleride_number":"7985","stop_name":"EB Chaparral DR @ Chaparral CI SE","status":"ACTIVE","point":{"type":"Point","coordinates":[-114.042317,50.8875247]},":@computed_region_4a3i_ccfj":"3",":@computed_region_p8tp_5dkv":"13",":@computed_region_4b54_tmc4":"6",":@computed_region_kxmf_bzkv":"130"}
,{"teleride_number":"6928","stop_name":"WB Applewood DR @ Applestone PA SE","status":"ACTIVE","point":{"type":"Point","coordinates":[-113.927135,51.0423052]},":@computed_region_4a3i_ccfj":"3",":@computed_region_p8tp_5dkv":"11",":@computed_region_4b54_tmc4":"12",":@computed_region_kxmf_bzkv":"221"}
,{"teleride_number":"9968","stop_name":"WB 7 AV SW @ 1 ST SW","status":"INACTIVE","point":{"type":"Point","coordinates":[-114.066371,51.0466751]},":@computed_region_4a3i_ccfj":"1",":@computed_region_p8tp_5dkv":"7",":@computed_region_4b54_tmc4":"7",":@computed_region_kxmf_bzkv":"262"}
,{"teleride_number":"5481","stop_name":"NB 14 ST NW @ North Haven DR","status":"ACTIVE","point":{"type":"Point","coordinates":[-114.0945572,51.0924465]},":@computed_region_4a3i_ccfj":"2",":@computed_region_p8tp_5dkv":"4",":@computed_region_4b54_tmc4":"2",":@computed_region_kxmf_bzkv":"61"}
,{"teleride_number":"9850","stop_name":"SB New Brighton DR @ New Brighton LN SE","status":"ACTIVE","point":{"type":"Point","coordinates":[-113.9551614,50.9227652]},":@computed_region_4a3i_ccfj":"3",":@computed_region_p8tp_5dkv":"8",":@computed_region_4b54_tmc4":"4",":@computed_region_kxmf_bzkv":"139"}
,{"teleride_number":"8243","stop_name":"WB Sunvale DR@ Sundown RD SE","status":"ACTIVE","point":{"type":"Point","coordinates":[-114.0507482,50.8997017]},":@computed_region_4a3i_ccfj":"3",":@computed_region_p8tp_5dkv":"13",":@computed_region_4b54_tmc4":"6",":@computed_region_kxmf_bzkv":"52"}
,{"teleride_number":"3765","stop_name":"Sarcee Road Station (WB)","status":"ACTIVE","point":{"type":"Point","coordinates":[-114.1394181,51.0125773]},":@computed_region_4a3i_ccfj":"1",":@computed_region_p8tp_5dkv":"2",":@computed_region_4b54_tmc4":"8",":@computed_region_kxmf_bzkv":"183"}
,{"teleride_number":"9806","stop_name":"NB 19 ST SE @ 9 AV SE","status":"INACTIVE","point":{"type":"Point","coordinates":[-114.0192835,51.0358068]},":@computed_region_4a3i_ccfj":"3",":@computed_region_p8tp_5dkv":"11",":@computed_region_4b54_tmc4":"10",":@computed_region_kxmf_bzkv":"54"}
,{"teleride_number":"5012","stop_name":"NB 29 ST NW @ Parkdale BV","status":"ACTIVE","point":{"type":"Point","coordinates":[-114.1293957,51.0557636]},":@computed_region_4a3i_ccfj":"2",":@computed_region_p8tp_5dkv":"7",":@computed_region_4b54_tmc4":"7",":@computed_region_kxmf_bzkv":"91"}
,{"teleride_number":"7541","stop_name":"NB Shawnee GA @ James McKevitt  RD SW","status":"ACTIVE","point":{"type":"Point","coordinates":[-114.0748532,50.9219228]},":@computed_region_4a3i_ccfj":"1",":@computed_region_p8tp_5dkv":"6",":@computed_region_4b54_tmc4":"5",":@computed_region_kxmf_bzkv":"32"}
,{"teleride_number":"7058","stop_name":"EB Northmount DR @ Button RD NW","status":"ACTIVE","point":{"type":"Point","coordinates":[-114.1380623,51.095949]},":@computed_region_4a3i_ccfj":"2",":@computed_region_p8tp_5dkv":"4",":@computed_region_4b54_tmc4":"7",":@computed_region_kxmf_bzkv":"50"}
,{"teleride_number":"5689","stop_name":"EB Lakeview DR @ 37 ST SW","status":"ACTIVE","point":{"type":"Point","coordinates":[-114.1403164,51.0066232]},":@computed_region_4a3i_ccfj":"1",":@computed_region_p8tp_5dkv":"5",":@computed_region_4b54_tmc4":"8",":@computed_region_kxmf_bzkv":"129"}
,{"teleride_number":"7176","stop_name":"NB Ranchlands BV @ Ranchero DR NW","status":"ACTIVE","point":{"type":"Point","coordinates":[-114.1939118,51.1209776]},":@computed_region_4a3i_ccfj":"2",":@computed_region_p8tp_5dkv":"10",":@computed_region_4b54_tmc4":"3",":@computed_region_kxmf_bzkv":"245"}
,{"teleride_number":"5764","stop_name":"NB Crowchild TR @ Glenmore TR SW","status":"ACTIVE","point":{"type":"Point","coordinates":[-114.1177606,51.0008965]},":@computed_region_4a3i_ccfj":"1",":@computed_region_p8tp_5dkv":"5",":@computed_region_4b54_tmc4":"8",":@computed_region_kxmf_bzkv":"122"}
,{"teleride_number":"8543","stop_name":"EB 17 AV SW @ 25 ST SW","status":"ACTIVE","point":{"type":"Point","coordinates":[-114.1201954,51.0377454]},":@computed_region_4a3i_ccfj":"1",":@computed_region_p8tp_5dkv":"2",":@computed_region_4b54_tmc4":"14",":@computed_region_kxmf_bzkv":"181"}
,{"teleride_number":"9100","stop_name":"NB Parkland BV @ Parkland WY SE","status":"ACTIVE","point":{"type":"Point","coordinates":[-114.0303896,50.9261165]},":@computed_region_4a3i_ccfj":"3",":@computed_region_p8tp_5dkv":"13",":@computed_region_4b54_tmc4":"6",":@computed_region_kxmf_bzkv":"117"}
,{"teleride_number":"9656","stop_name":"EB Taradale DR @ Tarington CL NE","status":"ACTIVE","point":{"type":"Point","coordinates":[-113.9336949,51.1140156]},":@computed_region_4a3i_ccfj":"4",":@computed_region_p8tp_5dkv":"1",":@computed_region_4b54_tmc4":"11",":@computed_region_kxmf_bzkv":"26"}
,{"teleride_number":"5366","stop_name":"NB 14 ST SW@ Joliet AV","status":"ACTIVE","point":{"type":"Point","coordinates":[-114.0945878,51.0263352]},":@computed_region_4a3i_ccfj":"1",":@computed_region_p8tp_5dkv":"2",":@computed_region_4b54_tmc4":"14",":@computed_region_kxmf_bzkv":"271"}
,{"teleride_number":"2427","stop_name":"SB 53 ST NW @ Dalhart RD","status":"ACTIVE","point":{"type":"Point","coordinates":[-114.1584514,51.1116495]},":@computed_region_4a3i_ccfj":"2",":@computed_region_p8tp_5dkv":"4",":@computed_region_4b54_tmc4":"7",":@computed_region_kxmf_bzkv":"38"}
,{"teleride_number":"7006","stop_name":"SB Centre ST N @ 78 AV N","status":"INACTIVE","point":{"type":"Point","coordinates":[-114.071599,51.1223405]},":@computed_region_4a3i_ccfj":"2",":@computed_region_p8tp_5dkv":"4",":@computed_region_4b54_tmc4":"2",":@computed_region_kxmf_bzkv":"261"}
,{"teleride_number":"5493","stop_name":"NB 14 ST NW @ Cambrian DR","status":"ACTIVE","point":{"type":"Point","coordinates":[-114.0944875,51.0837648]},":@computed_region_4a3i_ccfj":"2",":@computed_region_p8tp_5dkv":"4",":@computed_region_4b54_tmc4":"7",":@computed_region_kxmf_bzkv":"276"}
,{"teleride_number":"4083","stop_name":"SB 21 ST SW @ 51 AV SW","status":"ACTIVE","point":{"type":"Point","coordinates":[-114.1120106,51.0070364]},":@computed_region_4a3i_ccfj":"1",":@computed_region_p8tp_5dkv":"5",":@computed_region_4b54_tmc4":"8",":@computed_region_kxmf_bzkv":"122"}
,{"teleride_number":"5523","stop_name":"SB Macleod TR @ 39 AV SW","status":"ACTIVE","point":{"type":"Point","coordinates":[-114.0631563,51.0183709]},":@computed_region_4a3i_ccfj":"1",":@computed_region_p8tp_5dkv":"5",":@computed_region_4b54_tmc4":"10",":@computed_region_kxmf_bzkv":"60"}
,{"teleride_number":"8431","stop_name":"NB Tuscany Springs BV @ Tuscarora WY NW","status":"ACTIVE","point":{"type":"Point","coordinates":[-114.2367798,51.1292487]},":@computed_region_4a3i_ccfj":"2",":@computed_region_p8tp_5dkv":"9",":@computed_region_4b54_tmc4":"13",":@computed_region_kxmf_bzkv":"158"}
,{"teleride_number":"6517","stop_name":"SB Strathcona DR @ Strathcona PL SW","status":"ACTIVE","point":{"type":"Point","coordinates":[-114.1686714,51.0457218]},":@computed_region_4a3i_ccfj":"1",":@computed_region_p8tp_5dkv":"14",":@computed_region_4b54_tmc4":"1",":@computed_region_kxmf_bzkv":"67"}
,{"teleride_number":"2050","stop_name":"SB Nolan Hill Bv @ Nolancliff Ct NW","status":"ACTIVE","point":{"type":"Point","coordinates":[-114.1712225,51.1735364]},":@computed_region_4a3i_ccfj":"2",":@computed_region_p8tp_5dkv":"10",":@computed_region_4b54_tmc4":"3",":@computed_region_kxmf_bzkv":"188"}
,{"teleride_number":"6495","stop_name":"SB Citadel WY @ Citadel Bluff CL NW","status":"ACTIVE","point":{"type":"Point","coordinates":[-114.1930918,51.1462776]},":@computed_region_4a3i_ccfj":"2",":@computed_region_p8tp_5dkv":"10",":@computed_region_4b54_tmc4":"3",":@computed_region_kxmf_bzkv":"247"}
,{"teleride_number":"8569","stop_name":"WB Barlow - Max Bell CTrain Station","status":"ACTIVE","point":{"type":"Point","coordinates":[-114.0065893,51.0455636]},":@computed_region_4a3i_ccfj":"3",":@computed_region_p8tp_5dkv":"3",":@computed_region_4b54_tmc4":"12",":@computed_region_kxmf_bzkv":"167"}
,{"teleride_number":"7994","stop_name":"WB Sun Valley BV @ Sunmills DR SE","status":"ACTIVE","point":{"type":"Point","coordinates":[-114.0308578,50.9044682]},":@computed_region_4a3i_ccfj":"3",":@computed_region_p8tp_5dkv":"13",":@computed_region_4b54_tmc4":"6",":@computed_region_kxmf_bzkv":"52"}
,{"teleride_number":"4174","stop_name":"NB Strathcona DR @ Strathcona DR SW","status":"ACTIVE","point":{"type":"Point","coordinates":[-114.1814282,51.0459495]},":@computed_region_4a3i_ccfj":"1",":@computed_region_p8tp_5dkv":"14",":@computed_region_4b54_tmc4":"1",":@computed_region_kxmf_bzkv":"67"}
,{"teleride_number":"4746","stop_name":"WB  Midpark BV @ Midlake WY SE","status":"ACTIVE","point":{"type":"Point","coordinates":[-114.0591381,50.9083149]},":@computed_region_4a3i_ccfj":"3",":@computed_region_p8tp_5dkv":"13",":@computed_region_4b54_tmc4":"6",":@computed_region_kxmf_bzkv":"263"}
,{"teleride_number":"8196","stop_name":"SB 52 ST SE @ 61 AV SE","status":"ACTIVE","point":{"type":"Point","coordinates":[-113.9587683,50.9985267]},":@computed_region_4a3i_ccfj":"3",":@computed_region_p8tp_5dkv":"11",":@computed_region_4b54_tmc4":"10",":@computed_region_kxmf_bzkv":"159"}
,{"teleride_number":"9304","stop_name":"NB Bannister RD @ 149 AV SE","status":"ACTIVE","point":{"type":"Point","coordinates":[-114.0686089,50.9194732]},":@computed_region_4a3i_ccfj":"3",":@computed_region_p8tp_5dkv":"13",":@computed_region_4b54_tmc4":"6",":@computed_region_kxmf_bzkv":"263"}
,{"teleride_number":"7565","stop_name":"NB 36 ST NE @ 26 AV NE","status":"ACTIVE","point":{"type":"Point","coordinates":[-113.9812921,51.0783577]},":@computed_region_4a3i_ccfj":"4",":@computed_region_p8tp_5dkv":"3",":@computed_region_4b54_tmc4":"9",":@computed_region_kxmf_bzkv":"34"}
,{"teleride_number":"8761","stop_name":"NB Auburn Bay AV @ Auburn Bay DR SE","status":"ACTIVE","point":{"type":"Point","coordinates":[-113.9573552,50.8935159]},":@computed_region_4a3i_ccfj":"3",":@computed_region_p8tp_5dkv":"8",":@computed_region_4b54_tmc4":"4",":@computed_region_kxmf_bzkv":"95"}
,{"teleride_number":"4898","stop_name":"Annie Gale School on Whiteridge Wy NE","status":"ACTIVE","point":{"type":"Point","coordinates":[-113.9683976,51.0893395]},":@computed_region_4a3i_ccfj":"4",":@computed_region_p8tp_5dkv":"3",":@computed_region_4b54_tmc4":"9",":@computed_region_kxmf_bzkv":"145"}
,{"teleride_number":"6865","stop_name":"EB Riverglen DR @ 21 ST SE","status":"ACTIVE","point":{"type":"Point","coordinates":[-114.0087395,50.9735883]},":@computed_region_4a3i_ccfj":"3",":@computed_region_p8tp_5dkv":"8",":@computed_region_4b54_tmc4":"10",":@computed_region_kxmf_bzkv":"19"}
,{"teleride_number":"9558","stop_name":"EB Saddlemont BV @ Saddlelake DR NE","status":"ACTIVE","point":{"type":"Point","coordinates":[-113.933889,51.1296811]},":@computed_region_4a3i_ccfj":"4",":@computed_region_p8tp_5dkv":"1",":@computed_region_4b54_tmc4":"11",":@computed_region_kxmf_bzkv":"2"}
,{"teleride_number":"5926","stop_name":"EB Varsity DR @ 49 ST NW","status":"INACTIVE","point":{"type":"Point","coordinates":[-114.1595666,51.0936566]},":@computed_region_4a3i_ccfj":"2",":@computed_region_p8tp_5dkv":"9",":@computed_region_4b54_tmc4":"13",":@computed_region_kxmf_bzkv":"269"}
,{"teleride_number":"2094","stop_name":"SB Sherview DR @ Symons Valley PY NW","status":"ACTIVE","point":{"type":"Point","coordinates":[-114.1608089,51.1672738]},":@computed_region_4a3i_ccfj":"2",":@computed_region_p8tp_5dkv":"10",":@computed_region_4b54_tmc4":"3",":@computed_region_kxmf_bzkv":"292"}
,{"teleride_number":"4105","stop_name":"NB Ranchlands BV @ Ranchview DR NW","status":"ACTIVE","point":{"type":"Point","coordinates":[-114.1782104,51.1208873]},":@computed_region_4a3i_ccfj":"2",":@computed_region_p8tp_5dkv":"10",":@computed_region_4b54_tmc4":"3",":@computed_region_kxmf_bzkv":"245"}
,{"teleride_number":"5175","stop_name":"SB Centre ST N @ 19 AV N","status":"ACTIVE","point":{"type":"Point","coordinates":[-114.0626494,51.0694402]},":@computed_region_4a3i_ccfj":"2",":@computed_region_p8tp_5dkv":"7",":@computed_region_4b54_tmc4":"10",":@computed_region_kxmf_bzkv":"69"}
,{"teleride_number":"4917","stop_name":"EB 114 AV SE @ 35 ST SE","status":"ACTIVE","point":{"type":"Point","coordinates":[-113.9852727,50.949867]},":@computed_region_4a3i_ccfj":"3",":@computed_region_p8tp_5dkv":"8",":@computed_region_4b54_tmc4":"4",":@computed_region_kxmf_bzkv":"162"}
,{"teleride_number":"9911","stop_name":"WB @ Fish Creek-Lacombe Station","status":"INACTIVE","point":{"type":"Point","coordinates":[-114.0746932,50.9243133]},":@computed_region_4a3i_ccfj":"1",":@computed_region_p8tp_5dkv":"6",":@computed_region_4b54_tmc4":"5",":@computed_region_kxmf_bzkv":"32"}
,{"teleride_number":"6196","stop_name":"NB 40 ST SE @ 12 AV SE","status":"INACTIVE","point":{"type":"Point","coordinates":[-113.9756535,51.0428703]},":@computed_region_4a3i_ccfj":"3",":@computed_region_p8tp_5dkv":"11",":@computed_region_4b54_tmc4":"12",":@computed_region_kxmf_bzkv":"85"}
,{"teleride_number":"9950","stop_name":"NB 24 ST SW @ Bridlecrest WY","status":"ACTIVE","point":{"type":"Point","coordinates":[-114.1170359,50.901205]},":@computed_region_4a3i_ccfj":"1",":@computed_region_p8tp_5dkv":"6",":@computed_region_4b54_tmc4":"5",":@computed_region_kxmf_bzkv":"138"}
,{"teleride_number":"8976","stop_name":"WB Northmount DR @ Clarendon RD NW","status":"ACTIVE","point":{"type":"Point","coordinates":[-114.1011682,51.0854059]},":@computed_region_4a3i_ccfj":"2",":@computed_region_p8tp_5dkv":"4",":@computed_region_4b54_tmc4":"7",":@computed_region_kxmf_bzkv":"214"}
,{"teleride_number":"8093","stop_name":"EB 12 AV SW @ 7 ST SW","status":"ACTIVE","point":{"type":"Point","coordinates":[-114.0785687,51.0417755]},":@computed_region_4a3i_ccfj":"1",":@computed_region_p8tp_5dkv":"2",":@computed_region_4b54_tmc4":"14",":@computed_region_kxmf_bzkv":"260"}
,{"teleride_number":"6530","stop_name":"EB Richmond RD @ Glenway DR SW","status":"ACTIVE","point":{"type":"Point","coordinates":[-114.1445104,51.0211985]},":@computed_region_4a3i_ccfj":"1",":@computed_region_p8tp_5dkv":"14",":@computed_region_4b54_tmc4":"1",":@computed_region_kxmf_bzkv":"142"}
,{"teleride_number":"4668","stop_name":"SB Barlow TR @ Country Hills BV NE","status":"ACTIVE","point":{"type":"Point","coordinates":[-114.0019427,51.1533316]},":@computed_region_4a3i_ccfj":"4",":@computed_region_p8tp_5dkv":"1",":@computed_region_4b54_tmc4":"11",":@computed_region_kxmf_bzkv":"13"}
,{"teleride_number":"8365","stop_name":"EB Rocky Ridge BV @ Rocky Ridge DR NW","status":"ACTIVE","point":{"type":"Point","coordinates":[-114.2369667,51.1431136]},":@computed_region_4a3i_ccfj":"2",":@computed_region_p8tp_5dkv":"9",":@computed_region_4b54_tmc4":"13",":@computed_region_kxmf_bzkv":"193"}
,{"teleride_number":"5581","stop_name":"WB 11 AV SW @ 2 ST SW","status":"ACTIVE","point":{"type":"Point","coordinates":[-114.0687289,51.0425993]},":@computed_region_4a3i_ccfj":"1",":@computed_region_p8tp_5dkv":"5",":@computed_region_4b54_tmc4":"14",":@computed_region_kxmf_bzkv":"260"}
,{"teleride_number":"4156","stop_name":"WB Coventry Hills WY @ Coverbrook GR NE","status":"ACTIVE","point":{"type":"Point","coordinates":[-114.0544614,51.1692656]},":@computed_region_4a3i_ccfj":"4",":@computed_region_p8tp_5dkv":"12",":@computed_region_4b54_tmc4":"11",":@computed_region_kxmf_bzkv":"251"}
,{"teleride_number":"7650","stop_name":"WB 26 AV NE @ Catalina BV","status":"ACTIVE","point":{"type":"Point","coordinates":[-113.9320278,51.0762015]},":@computed_region_4a3i_ccfj":"4",":@computed_region_p8tp_5dkv":"3",":@computed_region_4b54_tmc4":"9",":@computed_region_kxmf_bzkv":"161"}
,{"teleride_number":"4079","stop_name":"WB Aspen WY @ Silver Birch WY NW","status":"ACTIVE","point":{"type":"Point","coordinates":[-114.2173407,51.0909473]},":@computed_region_4a3i_ccfj":"2",":@computed_region_p8tp_5dkv":"9",":@computed_region_4b54_tmc4":"13",":@computed_region_kxmf_bzkv":"282"}
,{"teleride_number":"5048","stop_name":"EB 5 AV SW @ 9 ST SW","status":"ACTIVE","point":{"type":"Point","coordinates":[-114.0826744,51.0488672]},":@computed_region_4a3i_ccfj":"1",":@computed_region_p8tp_5dkv":"2",":@computed_region_4b54_tmc4":"14",":@computed_region_kxmf_bzkv":"262"}
,{"teleride_number":"7755","stop_name":"NB 9 ST SE @ N. of 42 AV SE","status":"INACTIVE","point":{"type":"Point","coordinates":[-114.0405841,51.0181068]},":@computed_region_4a3i_ccfj":"3",":@computed_region_p8tp_5dkv":"11",":@computed_region_4b54_tmc4":"10",":@computed_region_kxmf_bzkv":"75"}
,{"teleride_number":"6268","stop_name":"SB Citadel DR @ Citadel BV NW","status":"ACTIVE","point":{"type":"Point","coordinates":[-114.1731986,51.1442061]},":@computed_region_4a3i_ccfj":"2",":@computed_region_p8tp_5dkv":"10",":@computed_region_4b54_tmc4":"3",":@computed_region_kxmf_bzkv":"247"}
,{"teleride_number":"8529","stop_name":"EB 5 AV SW @ 8 ST SW","status":"ACTIVE","point":{"type":"Point","coordinates":[-114.0802397,51.0487794]},":@computed_region_4a3i_ccfj":"1",":@computed_region_p8tp_5dkv":"2",":@computed_region_4b54_tmc4":"14",":@computed_region_kxmf_bzkv":"262"}
,{"teleride_number":"9559","stop_name":"WB Saddlemont BV @ Saddlelake GR NE","status":"ACTIVE","point":{"type":"Point","coordinates":[-113.931348,51.1297772]},":@computed_region_4a3i_ccfj":"4",":@computed_region_p8tp_5dkv":"1",":@computed_region_4b54_tmc4":"11",":@computed_region_kxmf_bzkv":"2"}
,{"teleride_number":"5245","stop_name":"SB 10 ST NW@ 5 AV NW","status":"ACTIVE","point":{"type":"Point","coordinates":[-114.0861197,51.058083]},":@computed_region_4a3i_ccfj":"2",":@computed_region_p8tp_5dkv":"7",":@computed_region_4b54_tmc4":"7",":@computed_region_kxmf_bzkv":"40"}
,{"teleride_number":"4691","stop_name":"WB McKenzie Towne DR @ Elgin ST SE","status":"ACTIVE","point":{"type":"Point","coordinates":[-113.9675384,50.9061235]},":@computed_region_4a3i_ccfj":"3",":@computed_region_p8tp_5dkv":"8",":@computed_region_4b54_tmc4":"4",":@computed_region_kxmf_bzkv":"46"}
,{"teleride_number":"7816","stop_name":"WB 25 AV SW @ 2 ST SW","status":"ACTIVE","point":{"type":"Point","coordinates":[-114.0687903,51.0305567]},":@computed_region_4a3i_ccfj":"1",":@computed_region_p8tp_5dkv":"5",":@computed_region_4b54_tmc4":"14",":@computed_region_kxmf_bzkv":"297"}
,{"teleride_number":"7515","stop_name":"SB 21 ST NE @ 27 AV NE","status":"ACTIVE","point":{"type":"Point","coordinates":[-114.0091499,51.0763849]},":@computed_region_4a3i_ccfj":"4",":@computed_region_p8tp_5dkv":"3",":@computed_region_4b54_tmc4":"9",":@computed_region_kxmf_bzkv":"106"}
,{"teleride_number":"7895","stop_name":"WB Rundlehorn DR @ 59 ST NE","status":"ACTIVE","point":{"type":"Point","coordinates":[-113.9478937,51.071616]},":@computed_region_4a3i_ccfj":"4",":@computed_region_p8tp_5dkv":"3",":@computed_region_4b54_tmc4":"9",":@computed_region_kxmf_bzkv":"36"}
,{"teleride_number":"9798","stop_name":"EB 7 AV SW @ 6 ST SW","status":"INACTIVE","point":{"type":"Point","coordinates":[-114.0752876,51.0467485]},":@computed_region_4a3i_ccfj":"1",":@computed_region_p8tp_5dkv":"2",":@computed_region_4b54_tmc4":"14",":@computed_region_kxmf_bzkv":"262"}
,{"teleride_number":"5035","stop_name":"SB Bowness  RD @ 43 ST NW","status":"INACTIVE","point":{"type":"Point","coordinates":[-114.1555568,51.0687895]},":@computed_region_4a3i_ccfj":"2",":@computed_region_p8tp_5dkv":"7",":@computed_region_4b54_tmc4":"13",":@computed_region_kxmf_bzkv":"24"}
,{"teleride_number":"8627","stop_name":"Saddletown LRT Station NB","status":"ACTIVE","point":{"type":"Point","coordinates":[-113.9485809,51.1245787]},":@computed_region_4a3i_ccfj":"4",":@computed_region_p8tp_5dkv":"1",":@computed_region_4b54_tmc4":"11",":@computed_region_kxmf_bzkv":"2"}
,{"teleride_number":"9865","stop_name":"Rotary Challenger Park NE","status":"INACTIVE","point":{"type":"Point","coordinates":[-113.9843525,51.0981007]},":@computed_region_4a3i_ccfj":"4",":@computed_region_p8tp_5dkv":"1",":@computed_region_4b54_tmc4":"11",":@computed_region_kxmf_bzkv":"86"}
,{"teleride_number":"5314","stop_name":"NB Riverbend DR @ Rivergreen CR SE","status":"INACTIVE","point":{"type":"Point","coordinates":[-114.0238812,50.9756395]},":@computed_region_4a3i_ccfj":"3",":@computed_region_p8tp_5dkv":"8",":@computed_region_4b54_tmc4":"10",":@computed_region_kxmf_bzkv":"19"}
,{"teleride_number":"3690","stop_name":"EB Evanston VW @ Evanston RI NW","status":"ACTIVE","point":{"type":"Point","coordinates":[-114.117595,51.1642643]},":@computed_region_4a3i_ccfj":"2",":@computed_region_p8tp_5dkv":"10",":@computed_region_4b54_tmc4":"3",":@computed_region_kxmf_bzkv":"237"}
,{"teleride_number":"2618","stop_name":"EB Na'a DR @ Sarcee TR SW","status":"ACTIVE","point":{"type":"Point","coordinates":[-114.1916347,51.0783162]},":@computed_region_4a3i_ccfj":"1",":@computed_region_p8tp_5dkv":"14",":@computed_region_4b54_tmc4":"1",":@computed_region_kxmf_bzkv":"57"}
,{"teleride_number":"7442","stop_name":"NB Centre ST N @ 16 AV N","status":"ACTIVE","point":{"type":"Point","coordinates":[-114.0623801,51.0673826]},":@computed_region_4a3i_ccfj":"4",":@computed_region_p8tp_5dkv":"7",":@computed_region_4b54_tmc4":"10",":@computed_region_kxmf_bzkv":"69"}
,{"teleride_number":"6172","stop_name":"NB Abbeydale DR @ 4 AV NE","status":"ACTIVE","point":{"type":"Point","coordinates":[-113.9303729,51.0550465]},":@computed_region_4a3i_ccfj":"4",":@computed_region_p8tp_5dkv":"3",":@computed_region_4b54_tmc4":"12",":@computed_region_kxmf_bzkv":"94"}
,{"teleride_number":"5512","stop_name":"WB James McKevitt RD @ Shawnee GA SW","status":"ACTIVE","point":{"type":"Point","coordinates":[-114.075686,50.9214409]},":@computed_region_4a3i_ccfj":"1",":@computed_region_p8tp_5dkv":"6",":@computed_region_4b54_tmc4":"5",":@computed_region_kxmf_bzkv":"32"}
,{"teleride_number":"6751","stop_name":"Brentwood LRT Station NB","status":"ACTIVE","point":{"type":"Point","coordinates":[-114.1324793,51.0866824]},":@computed_region_4a3i_ccfj":"2",":@computed_region_p8tp_5dkv":"9",":@computed_region_4b54_tmc4":"13",":@computed_region_kxmf_bzkv":"269"}
,{"teleride_number":"8965","stop_name":"SB 10 ST NW @ Confederation PK","status":"ACTIVE","point":{"type":"Point","coordinates":[-114.0847325,51.076065]},":@computed_region_4a3i_ccfj":"2",":@computed_region_p8tp_5dkv":"7",":@computed_region_4b54_tmc4":"7",":@computed_region_kxmf_bzkv":"63"}
,{"teleride_number":"6323","stop_name":"WB 6 AV SW @ E. of 1 ST SW","status":"ACTIVE","point":{"type":"Point","coordinates":[-114.063904,51.0475962]},":@computed_region_4a3i_ccfj":"1",":@computed_region_p8tp_5dkv":"7",":@computed_region_4b54_tmc4":"7",":@computed_region_kxmf_bzkv":"262"}
,{"teleride_number":"8956","stop_name":"SB 45 ST SW @ 26 AV SW","status":"ACTIVE","point":{"type":"Point","coordinates":[-114.1528879,51.0301729]},":@computed_region_4a3i_ccfj":"1",":@computed_region_p8tp_5dkv":"14",":@computed_region_4b54_tmc4":"1",":@computed_region_kxmf_bzkv":"298"}
,{"teleride_number":"2105","stop_name":"WB 6 AV SW @ 1 ST SW","status":"INACTIVE","point":{"type":"Point","coordinates":[-114.0650313,51.0475976]},":@computed_region_4a3i_ccfj":"1",":@computed_region_p8tp_5dkv":"7",":@computed_region_4b54_tmc4":"7",":@computed_region_kxmf_bzkv":"262"}
,{"teleride_number":"2253","stop_name":"EB 58 AV @ 37 ST SW","status":"ACTIVE","point":{"type":"Point","coordinates":[-114.1405968,51.0008608]},":@computed_region_4a3i_ccfj":"1",":@computed_region_p8tp_5dkv":"5",":@computed_region_4b54_tmc4":"8",":@computed_region_kxmf_bzkv":"129"}
,{"teleride_number":"4248","stop_name":"WB Braeside DR @ Brabourne RD SW","status":"ACTIVE","point":{"type":"Point","coordinates":[-114.1132865,50.9542553]},":@computed_region_4a3i_ccfj":"1",":@computed_region_p8tp_5dkv":"5",":@computed_region_4b54_tmc4":"8",":@computed_region_kxmf_bzkv":"23"}
,{"teleride_number":"5072","stop_name":"SB 52 ST SE @ 14 AV SE","status":"ACTIVE","point":{"type":"Point","coordinates":[-113.9585261,51.0405545]},":@computed_region_4a3i_ccfj":"3",":@computed_region_p8tp_5dkv":"11",":@computed_region_4b54_tmc4":"12",":@computed_region_kxmf_bzkv":"85"}
,{"teleride_number":"9747","stop_name":"EB Cranston AV @ Cranston RD SE","status":"ACTIVE","point":{"type":"Point","coordinates":[-113.9788828,50.8795887]},":@computed_region_4a3i_ccfj":"3",":@computed_region_p8tp_5dkv":"8",":@computed_region_4b54_tmc4":"4",":@computed_region_kxmf_bzkv":"294"}
,{"teleride_number":"7080","stop_name":"NB Edgebrook DR @ Edgemont BV NW","status":"ACTIVE","point":{"type":"Point","coordinates":[-114.1383217,51.1285071]},":@computed_region_4a3i_ccfj":"2",":@computed_region_p8tp_5dkv":"4",":@computed_region_4b54_tmc4":"2",":@computed_region_kxmf_bzkv":"272"}
,{"teleride_number":"7185","stop_name":"SB Ranchview DR @ Ranchero DR NW","status":"ACTIVE","point":{"type":"Point","coordinates":[-114.1904753,51.1210839]},":@computed_region_4a3i_ccfj":"2",":@computed_region_p8tp_5dkv":"10",":@computed_region_4b54_tmc4":"3",":@computed_region_kxmf_bzkv":"245"}
,{"teleride_number":"4806","stop_name":"SB Macleod TR @ 56 AV SW","status":"ACTIVE","point":{"type":"Point","coordinates":[-114.0712306,51.0036242]},":@computed_region_4a3i_ccfj":"1",":@computed_region_p8tp_5dkv":"5",":@computed_region_4b54_tmc4":"8",":@computed_region_kxmf_bzkv":"144"}
,{"teleride_number":"5990","stop_name":"Chinook LRT Station WB","status":"ACTIVE","point":{"type":"Point","coordinates":[-114.0668285,50.9974781]},":@computed_region_4a3i_ccfj":"1",":@computed_region_p8tp_5dkv":"11",":@computed_region_4b54_tmc4":"10",":@computed_region_kxmf_bzkv":"160"}
,{"teleride_number":"7726","stop_name":"WB 71 AV SE @ 5 ST SE","status":"ACTIVE","point":{"type":"Point","coordinates":[-114.0514092,50.9886523]},":@computed_region_4a3i_ccfj":"3",":@computed_region_p8tp_5dkv":"11",":@computed_region_4b54_tmc4":"10",":@computed_region_kxmf_bzkv":"76"}
,{"teleride_number":"9101","stop_name":"WB Canyon Meadows DR @ Lake Placid RI SE","status":"ACTIVE","point":{"type":"Point","coordinates":[-114.0525313,50.9306808]},":@computed_region_4a3i_ccfj":"3",":@computed_region_p8tp_5dkv":"13",":@computed_region_4b54_tmc4":"6",":@computed_region_kxmf_bzkv":"267"}
,{"teleride_number":"2842","stop_name":"Franklin LRT Station S Lot (EB Radcliffe Dr SE)","status":"ACTIVE","point":{"type":"Point","coordinates":[-113.9946922,51.0465012]},":@computed_region_4a3i_ccfj":"3",":@computed_region_p8tp_5dkv":"11",":@computed_region_4b54_tmc4":"12",":@computed_region_kxmf_bzkv":"121"}
,{"teleride_number":"4067","stop_name":"SB 53 ST NW @ Valiant DR","status":"INACTIVE","point":{"type":"Point","coordinates":[-114.1645454,51.0896508]},":@computed_region_4a3i_ccfj":"2",":@computed_region_p8tp_5dkv":"9",":@computed_region_4b54_tmc4":"13",":@computed_region_kxmf_bzkv":"269"}
,{"teleride_number":"2492","stop_name":"NB 1 ST SW @ 6 AV SW","status":"ACTIVE","point":{"type":"Point","coordinates":[-114.0650872,51.0477285]},":@computed_region_4a3i_ccfj":"1",":@computed_region_p8tp_5dkv":"7",":@computed_region_4b54_tmc4":"7",":@computed_region_kxmf_bzkv":"262"}
,{"teleride_number":"5909","stop_name":"WB 66 AV NW @ Dalhousie DR","status":"ACTIVE","point":{"type":"Point","coordinates":[-114.1678086,51.1124325]},":@computed_region_4a3i_ccfj":"2",":@computed_region_p8tp_5dkv":"4",":@computed_region_4b54_tmc4":"7",":@computed_region_kxmf_bzkv":"38"}
,{"teleride_number":"2204","stop_name":"EB Walden DR @ Walden HT SE","status":"ACTIVE","point":{"type":"Point","coordinates":[-114.0324621,50.8680653]},":@computed_region_4a3i_ccfj":"3",":@computed_region_p8tp_5dkv":"13",":@computed_region_4b54_tmc4":"6",":@computed_region_kxmf_bzkv":"135"}
,{"teleride_number":"6858","stop_name":"WB 26 AV NE @ 52 ST NE","status":"ACTIVE","point":{"type":"Point","coordinates":[-113.9574633,51.0763452]},":@computed_region_4a3i_ccfj":"4",":@computed_region_p8tp_5dkv":"3",":@computed_region_4b54_tmc4":"9",":@computed_region_kxmf_bzkv":"36"}
,{"teleride_number":"3593","stop_name":"NB Mahogany BV @ 300 Marquis CO SE","status":"ACTIVE","point":{"type":"Point","coordinates":[-113.9104909,50.9012712]},":@computed_region_4a3i_ccfj":"3",":@computed_region_p8tp_5dkv":"8",":@computed_region_4b54_tmc4":"4",":@computed_region_kxmf_bzkv":"116"}
,{"teleride_number":"2728","stop_name":"Saddletowne LRT Station SB","status":"ACTIVE","point":{"type":"Point","coordinates":[-113.9480392,51.1255315]},":@computed_region_4a3i_ccfj":"4",":@computed_region_p8tp_5dkv":"1",":@computed_region_4b54_tmc4":"11",":@computed_region_kxmf_bzkv":"2"}
,{"teleride_number":"7439","stop_name":"NB Charleswood DR @ Morley TR NW","status":"INACTIVE","point":{"type":"Point","coordinates":[-114.1239137,51.0840972]},":@computed_region_4a3i_ccfj":"2",":@computed_region_p8tp_5dkv":"4",":@computed_region_4b54_tmc4":"7",":@computed_region_kxmf_bzkv":"125"}
,{"teleride_number":"5310","stop_name":"WB 26 AV SW@ 29 ST SW","status":"ACTIVE","point":{"type":"Point","coordinates":[-114.130153,51.0301381]},":@computed_region_4a3i_ccfj":"1",":@computed_region_p8tp_5dkv":"2",":@computed_region_4b54_tmc4":"14",":@computed_region_kxmf_bzkv":"182"}
,{"teleride_number":"6302","stop_name":"SB 36 ST SE @ 26 AV SE","status":"ACTIVE","point":{"type":"Point","coordinates":[-113.9818281,51.0297624]},":@computed_region_4a3i_ccfj":"3",":@computed_region_p8tp_5dkv":"11",":@computed_region_4b54_tmc4":"10",":@computed_region_kxmf_bzkv":"196"}
,{"teleride_number":"4914","stop_name":"NB 30 ST SE @ Glenmore TR","status":"INACTIVE","point":{"type":"Point","coordinates":[-113.9904565,50.9804763]},":@computed_region_4a3i_ccfj":"3",":@computed_region_p8tp_5dkv":"11",":@computed_region_4b54_tmc4":"10",":@computed_region_kxmf_bzkv":"159"}
,{"teleride_number":"3645","stop_name":"Westbrook LRT Station","status":"ACTIVE","point":{"type":"Point","coordinates":[-114.1365169,51.0407652]},":@computed_region_4a3i_ccfj":"1",":@computed_region_p8tp_5dkv":"2",":@computed_region_4b54_tmc4":"14",":@computed_region_kxmf_bzkv":"281"}
,{"teleride_number":"7135","stop_name":"WB Silver Springs RD @ Silver Hill WY NW","status":"ACTIVE","point":{"type":"Point","coordinates":[-114.2030922,51.1093068]},":@computed_region_4a3i_ccfj":"2",":@computed_region_p8tp_5dkv":"9",":@computed_region_4b54_tmc4":"13",":@computed_region_kxmf_bzkv":"147"}
,{"teleride_number":"8031","stop_name":"EB 5 AV NW @ 20 ST NW","status":"ACTIVE","point":{"type":"Point","coordinates":[-114.1075581,51.0571587]},":@computed_region_4a3i_ccfj":"2",":@computed_region_p8tp_5dkv":"7",":@computed_region_4b54_tmc4":"7",":@computed_region_kxmf_bzkv":"280"}
,{"teleride_number":"7343","stop_name":"SB 12 ST NE @ McKnight BV","status":"ACTIVE","point":{"type":"Point","coordinates":[-114.0336057,51.0954031]},":@computed_region_4a3i_ccfj":"4",":@computed_region_p8tp_5dkv":"3",":@computed_region_4b54_tmc4":"9",":@computed_region_kxmf_bzkv":"81"}
,{"teleride_number":"4474","stop_name":"EB 14 AV SE @ 25 ST SE","status":"ACTIVE","point":{"type":"Point","coordinates":[-113.9996538,51.0404312]},":@computed_region_4a3i_ccfj":"3",":@computed_region_p8tp_5dkv":"11",":@computed_region_4b54_tmc4":"12",":@computed_region_kxmf_bzkv":"121"}
,{"teleride_number":"5663","stop_name":"NB 14 ST NW @ 20 AV NW","status":"ACTIVE","point":{"type":"Point","coordinates":[-114.0945271,51.0708312]},":@computed_region_4a3i_ccfj":"2",":@computed_region_p8tp_5dkv":"7",":@computed_region_4b54_tmc4":"7",":@computed_region_kxmf_bzkv":"63"}
,{"teleride_number":"2035","stop_name":"NB Nolan Hill Dr @ Nolanfield Rd NW","status":"ACTIVE","point":{"type":"Point","coordinates":[-114.1604186,51.1725765]},":@computed_region_4a3i_ccfj":"2",":@computed_region_p8tp_5dkv":"10",":@computed_region_4b54_tmc4":"3",":@computed_region_kxmf_bzkv":"188"}
,{"teleride_number":"4122","stop_name":"EB Chaparral DR @ Chaparral GV SE","status":"ACTIVE","point":{"type":"Point","coordinates":[-114.0414188,50.8826266]},":@computed_region_4a3i_ccfj":"3",":@computed_region_p8tp_5dkv":"13",":@computed_region_4b54_tmc4":"6",":@computed_region_kxmf_bzkv":"130"}
,{"teleride_number":"6506","stop_name":"EB 9 AV SW @ 9 ST SW","status":"INACTIVE","point":{"type":"Point","coordinates":[-114.0842518,51.0451108]},":@computed_region_4a3i_ccfj":"1",":@computed_region_p8tp_5dkv":"2",":@computed_region_4b54_tmc4":"14",":@computed_region_kxmf_bzkv":"45"}
,{"teleride_number":"7062","stop_name":"WB 52 AV NW @ Brisebois DR","status":"ACTIVE","point":{"type":"Point","coordinates":[-114.1300332,51.1010409]},":@computed_region_4a3i_ccfj":"2",":@computed_region_p8tp_5dkv":"4",":@computed_region_4b54_tmc4":"7",":@computed_region_kxmf_bzkv":"50"}
,{"teleride_number":"9720","stop_name":"SB Panorama Hills DR NW @ Panorama Hills LD NW","status":"ACTIVE","point":{"type":"Point","coordinates":[-114.0858925,51.1538719]},":@computed_region_4a3i_ccfj":"2",":@computed_region_p8tp_5dkv":"12",":@computed_region_4b54_tmc4":"11",":@computed_region_kxmf_bzkv":"235"}
,{"teleride_number":"2652","stop_name":"WB Copperfield BV @ Copperstone GV SE","status":"ACTIVE","point":{"type":"Point","coordinates":[-113.9312994,50.9104173]},":@computed_region_4a3i_ccfj":"3",":@computed_region_p8tp_5dkv":"8",":@computed_region_4b54_tmc4":"4",":@computed_region_kxmf_bzkv":"96"}
,{"teleride_number":"9174","stop_name":"Southland Leisure Centre (WB)","status":"ACTIVE","point":{"type":"Point","coordinates":[-114.1070963,50.9615139]},":@computed_region_4a3i_ccfj":"1",":@computed_region_p8tp_5dkv":"5",":@computed_region_4b54_tmc4":"8",":@computed_region_kxmf_bzkv":"66"}
,{"teleride_number":"8070","stop_name":"EB 17 AV SW @ 4 ST SW","status":"ACTIVE","point":{"type":"Point","coordinates":[-114.0707627,51.0377302]},":@computed_region_4a3i_ccfj":"1",":@computed_region_p8tp_5dkv":"5",":@computed_region_4b54_tmc4":"14",":@computed_region_kxmf_bzkv":"297"}
,{"teleride_number":"5815","stop_name":"WB Scenic Acres GA @ Scenic WY NW","status":"ACTIVE","point":{"type":"Point","coordinates":[-114.210552,51.1145041]},":@computed_region_4a3i_ccfj":"2",":@computed_region_p8tp_5dkv":"9",":@computed_region_4b54_tmc4":"13",":@computed_region_kxmf_bzkv":"148"}
,{"teleride_number":"7385","stop_name":"SB 19 ST NW @ Kensington RD","status":"INACTIVE","point":{"type":"Point","coordinates":[-114.1056513,51.0522633]},":@computed_region_4a3i_ccfj":"2",":@computed_region_p8tp_5dkv":"7",":@computed_region_4b54_tmc4":"7",":@computed_region_kxmf_bzkv":"280"}
,{"teleride_number":"5845","stop_name":"SB 20A ST SE @ Lynndale RD","status":"ACTIVE","point":{"type":"Point","coordinates":[-114.0102738,50.989396]},":@computed_region_4a3i_ccfj":"3",":@computed_region_p8tp_5dkv":"11",":@computed_region_4b54_tmc4":"10",":@computed_region_kxmf_bzkv":"28"}
,{"teleride_number":"2471","stop_name":"EB 34 AV SW @ 69 ST SW","status":"ACTIVE","point":{"type":"Point","coordinates":[-114.1867983,51.0231721]},":@computed_region_4a3i_ccfj":"1",":@computed_region_p8tp_5dkv":"14",":@computed_region_4b54_tmc4":"1",":@computed_region_kxmf_bzkv":"278"}
,{"teleride_number":"4442","stop_name":"NB Kincora DR @ Kincora LD NW","status":"ACTIVE","point":{"type":"Point","coordinates":[-114.1263094,51.15758]},":@computed_region_4a3i_ccfj":"2",":@computed_region_p8tp_5dkv":"10",":@computed_region_4b54_tmc4":"3",":@computed_region_kxmf_bzkv":"220"}
,{"teleride_number":"8598","stop_name":"SB Arbour Lake DR @ Arbour Vista GA NW","status":"ACTIVE","point":{"type":"Point","coordinates":[-114.1938036,51.1357261]},":@computed_region_4a3i_ccfj":"2",":@computed_region_p8tp_5dkv":"10",":@computed_region_4b54_tmc4":"3",":@computed_region_kxmf_bzkv":"244"}
,{"teleride_number":"3669","stop_name":"WB 48 AV NE @ Hopewell WY (proposed)","status":"INACTIVE","point":{"type":"Point","coordinates":[-113.9991183,51.096243]},":@computed_region_4a3i_ccfj":"4",":@computed_region_p8tp_5dkv":"1",":@computed_region_4b54_tmc4":"11",":@computed_region_kxmf_bzkv":"71"}
,{"teleride_number":"9056","stop_name":"EB Beddington BV @ Berkley RD NW","status":"INACTIVE","point":{"type":"Point","coordinates":[-114.0796947,51.1283609]},":@computed_region_4a3i_ccfj":"2",":@computed_region_p8tp_5dkv":"4",":@computed_region_4b54_tmc4":"2",":@computed_region_kxmf_bzkv":"273"}
,{"teleride_number":"7283","stop_name":"Falshire Drive Station (SB)","status":"ACTIVE","point":{"type":"Point","coordinates":[-113.9503824,51.1064828]},":@computed_region_4a3i_ccfj":"4",":@computed_region_p8tp_5dkv":"1",":@computed_region_4b54_tmc4":"9",":@computed_region_kxmf_bzkv":"119"}
,{"teleride_number":"5697","stop_name":"WB University WY @ Craigie Hall","status":"ACTIVE","point":{"type":"Point","coordinates":[-114.1270175,51.0760711]},":@computed_region_4a3i_ccfj":"2",":@computed_region_p8tp_5dkv":"7",":@computed_region_4b54_tmc4":"13",":@computed_region_kxmf_bzkv":"287"}
,{"teleride_number":"9520","stop_name":"NB  Prestwick BV @  Prestwick AV SE","status":"ACTIVE","point":{"type":"Point","coordinates":[-113.9657823,50.9224842]},":@computed_region_4a3i_ccfj":"3",":@computed_region_p8tp_5dkv":"8",":@computed_region_4b54_tmc4":"4",":@computed_region_kxmf_bzkv":"46"}
,{"teleride_number":"8072","stop_name":"EB 3 AV SW @ 2 ST SW","status":"ACTIVE","point":{"type":"Point","coordinates":[-114.067055,51.0503469]},":@computed_region_4a3i_ccfj":"1",":@computed_region_p8tp_5dkv":"7",":@computed_region_4b54_tmc4":"7",":@computed_region_kxmf_bzkv":"262"}
,{"teleride_number":"4384","stop_name":"WB Southland DR @ Fairmount DR SE","status":"ACTIVE","point":{"type":"Point","coordinates":[-114.059355,50.9641885]},":@computed_region_4a3i_ccfj":"3",":@computed_region_p8tp_5dkv":"5",":@computed_region_4b54_tmc4":"10",":@computed_region_kxmf_bzkv":"174"}
,{"teleride_number":"8272","stop_name":"EB 14 AV SE @ 65 ST SE","status":"INACTIVE","point":{"type":"Point","coordinates":[-113.9388152,51.0404442]},":@computed_region_4a3i_ccfj":"3",":@computed_region_p8tp_5dkv":"11",":@computed_region_4b54_tmc4":"12",":@computed_region_kxmf_bzkv":"103"}
,{"teleride_number":"8487","stop_name":"NB Simcoe BV @ Sirocco DR SW","status":"ACTIVE","point":{"type":"Point","coordinates":[-114.1816628,51.0310419]},":@computed_region_4a3i_ccfj":"1",":@computed_region_p8tp_5dkv":"14",":@computed_region_4b54_tmc4":"1",":@computed_region_kxmf_bzkv":"278"}
,{"teleride_number":"9541","stop_name":"EB Saddlecrest BV @ Saddlecrest TC NE","status":"INACTIVE","point":{"type":"Point","coordinates":[-113.9375847,51.1372978]},":@computed_region_4a3i_ccfj":"4",":@computed_region_p8tp_5dkv":"1",":@computed_region_4b54_tmc4":"11",":@computed_region_kxmf_bzkv":"2"}
,{"teleride_number":"7577","stop_name":"SB 36 ST NE @ 32 AV NE","status":"ACTIVE","point":{"type":"Point","coordinates":[-113.982003,51.0805978]},":@computed_region_4a3i_ccfj":"4",":@computed_region_p8tp_5dkv":"3",":@computed_region_4b54_tmc4":"9",":@computed_region_kxmf_bzkv":"83"}
,{"teleride_number":"7144","stop_name":"EB Scenic Acres BV @ Scurfield WY NW","status":"ACTIVE","point":{"type":"Point","coordinates":[-114.2141347,51.1193207]},":@computed_region_4a3i_ccfj":"2",":@computed_region_p8tp_5dkv":"9",":@computed_region_4b54_tmc4":"13",":@computed_region_kxmf_bzkv":"148"}
,{"teleride_number":"6951","stop_name":"EB Heritage DR @ 5 ST SW","status":"ACTIVE","point":{"type":"Point","coordinates":[-114.0793052,50.9794862]},":@computed_region_4a3i_ccfj":"1",":@computed_region_p8tp_5dkv":"5",":@computed_region_4b54_tmc4":"8",":@computed_region_kxmf_bzkv":"195"}
,{"teleride_number":"6805","stop_name":"NB 39 Avenue CTrain Station","status":"ACTIVE","point":{"type":"Point","coordinates":[-114.0612375,51.0178189]},":@computed_region_4a3i_ccfj":"3",":@computed_region_p8tp_5dkv":"11",":@computed_region_4b54_tmc4":"10",":@computed_region_kxmf_bzkv":"160"}
,{"teleride_number":"2796","stop_name":"Rundleside Drive Station (EB)","status":"ACTIVE","point":{"type":"Point","coordinates":[-113.969364,51.0813779]},":@computed_region_4a3i_ccfj":"4",":@computed_region_p8tp_5dkv":"3",":@computed_region_4b54_tmc4":"9",":@computed_region_kxmf_bzkv":"34"}
,{"teleride_number":"9752","stop_name":"SB 18 ST SE @ Quarry Park RD","status":"INACTIVE","point":{"type":"Point","coordinates":[-114.009654,50.9591386]},":@computed_region_4a3i_ccfj":"3",":@computed_region_p8tp_5dkv":"8",":@computed_region_4b54_tmc4":"4",":@computed_region_kxmf_bzkv":"268"}
,{"teleride_number":"2076","stop_name":"EB Symons Valley PY @ Kincora GA NW","status":"ACTIVE","point":{"type":"Point","coordinates":[-114.1456872,51.1678724]},":@computed_region_4a3i_ccfj":"2",":@computed_region_p8tp_5dkv":"10",":@computed_region_4b54_tmc4":"3",":@computed_region_kxmf_bzkv":"220"}
,{"teleride_number":"4943","stop_name":"WB Valley Ridge DR @ Valley Crest RI SW","status":"ACTIVE","point":{"type":"Point","coordinates":[-114.2670024,51.0926232]},":@computed_region_4a3i_ccfj":"2",":@computed_region_p8tp_5dkv":"9",":@computed_region_4b54_tmc4":"13",":@computed_region_kxmf_bzkv":"47"}
,{"teleride_number":"2932","stop_name":"SB West Creek DR @ Lavender Link","status":"ACTIVE","point":{"type":"Point","coordinates":[-113.8407091,51.0287834]}}
,{"teleride_number":"9946","stop_name":"NB 52 ST SE @ McKenzie Towne LI","status":"ACTIVE","point":{"type":"Point","coordinates":[-113.9560348,50.915277]},":@computed_region_4a3i_ccfj":"3",":@computed_region_p8tp_5dkv":"8",":@computed_region_4b54_tmc4":"4",":@computed_region_kxmf_bzkv":"139"}
,{"teleride_number":"8807","stop_name":"EB Bowness RD @ 85 ST NW","status":"ACTIVE","point":{"type":"Point","coordinates":[-114.2101959,51.0914784]},":@computed_region_4a3i_ccfj":"2",":@computed_region_p8tp_5dkv":"9",":@computed_region_4b54_tmc4":"13",":@computed_region_kxmf_bzkv":"149"}
,{"teleride_number":"7725","stop_name":"SB James McKevitt RD @ Everwillow BV SW","status":"ACTIVE","point":{"type":"Point","coordinates":[-114.1003299,50.9137968]},":@computed_region_4a3i_ccfj":"1",":@computed_region_p8tp_5dkv":"6",":@computed_region_4b54_tmc4":"5",":@computed_region_kxmf_bzkv":"39"}
,{"teleride_number":"2301","stop_name":"SB 52 ST SE @ 94 AV SE","status":"ACTIVE","point":{"type":"Point","coordinates":[-113.9588372,50.9680115]},":@computed_region_4a3i_ccfj":"3",":@computed_region_p8tp_5dkv":"8",":@computed_region_4b54_tmc4":"10",":@computed_region_kxmf_bzkv":"105"}
,{"teleride_number":"9367","stop_name":"WB Discovery Ridge BV @ Discovery Ridge LI SW","status":"ACTIVE","point":{"type":"Point","coordinates":[-114.2072131,51.0122542]},":@computed_region_4a3i_ccfj":"1",":@computed_region_p8tp_5dkv":"14",":@computed_region_4b54_tmc4":"1",":@computed_region_kxmf_bzkv":"165"}
,{"teleride_number":"2300","stop_name":"NB 52 ST SE @ 94 AV SE","status":"ACTIVE","point":{"type":"Point","coordinates":[-113.9582023,50.9692246]},":@computed_region_4a3i_ccfj":"3",":@computed_region_p8tp_5dkv":"8",":@computed_region_4b54_tmc4":"10",":@computed_region_kxmf_bzkv":"104"}
,{"teleride_number":"8503","stop_name":"NB 25 ST SE @ 45 AV SE","status":"ACTIVE","point":{"type":"Point","coordinates":[-113.9989999,51.0136901]},":@computed_region_4a3i_ccfj":"3",":@computed_region_p8tp_5dkv":"11",":@computed_region_4b54_tmc4":"10",":@computed_region_kxmf_bzkv":"102"}
,{"teleride_number":"5341","stop_name":"SB 20 ST SW @ 38 AV SW","status":"ACTIVE","point":{"type":"Point","coordinates":[-114.1092833,51.0193872]},":@computed_region_4a3i_ccfj":"1",":@computed_region_p8tp_5dkv":"2",":@computed_region_4b54_tmc4":"8",":@computed_region_kxmf_bzkv":"201"}
,{"teleride_number":"8677","stop_name":"NB Symons Valley PY @ N. of Evanston WY NW","status":"ACTIVE","point":{"type":"Point","coordinates":[-114.1067478,51.1760411]},":@computed_region_4a3i_ccfj":"2",":@computed_region_p8tp_5dkv":"10",":@computed_region_4b54_tmc4":"3",":@computed_region_kxmf_bzkv":"237"}
,{"teleride_number":"4273","stop_name":"WB Whitefield DR @ 38 ST NE","status":"INACTIVE","point":{"type":"Point","coordinates":[-113.9789656,51.0884169]},":@computed_region_4a3i_ccfj":"4",":@computed_region_p8tp_5dkv":"3",":@computed_region_4b54_tmc4":"9",":@computed_region_kxmf_bzkv":"145"}
,{"teleride_number":"8622","stop_name":"EB Beddington BV @ Berkley RD NW","status":"ACTIVE","point":{"type":"Point","coordinates":[-114.0796947,51.1283609]},":@computed_region_4a3i_ccfj":"2",":@computed_region_p8tp_5dkv":"4",":@computed_region_4b54_tmc4":"2",":@computed_region_kxmf_bzkv":"273"}
,{"teleride_number":"9738","stop_name":"SB Auburn Bay BV @ Auburn Bay AV SE","status":"ACTIVE","point":{"type":"Point","coordinates":[-113.9624503,50.8976156]},":@computed_region_4a3i_ccfj":"3",":@computed_region_p8tp_5dkv":"8",":@computed_region_4b54_tmc4":"4",":@computed_region_kxmf_bzkv":"95"}
,{"teleride_number":"6658","stop_name":"NB Centre ST N @ 16 AV N","status":"ACTIVE","point":{"type":"Point","coordinates":[-114.0623801,51.0673826]},":@computed_region_4a3i_ccfj":"4",":@computed_region_p8tp_5dkv":"7",":@computed_region_4b54_tmc4":"10",":@computed_region_kxmf_bzkv":"69"}
,{"teleride_number":"2031","stop_name":"WB Nolan Hill GA @ Shaganappi TR NW","status":"ACTIVE","point":{"type":"Point","coordinates":[-114.1610558,51.1799478]},":@computed_region_4a3i_ccfj":"2",":@computed_region_p8tp_5dkv":"10",":@computed_region_4b54_tmc4":"3",":@computed_region_kxmf_bzkv":"188"}
,{"teleride_number":"2146","stop_name":"Franklin LRT Station N Lot","status":"INACTIVE","point":{"type":"Point","coordinates":[-113.9939475,51.0479968]},":@computed_region_4a3i_ccfj":"3",":@computed_region_p8tp_5dkv":"3",":@computed_region_4b54_tmc4":"12",":@computed_region_kxmf_bzkv":"166"}
,{"teleride_number":"4117","stop_name":"NB Shawville BV @ N. of Shalom WY SE","status":"ACTIVE","point":{"type":"Point","coordinates":[-114.0676139,50.9079166]},":@computed_region_4a3i_ccfj":"3",":@computed_region_p8tp_5dkv":"6",":@computed_region_4b54_tmc4":"5",":@computed_region_kxmf_bzkv":"115"}
,{"teleride_number":"8962","stop_name":"SB 10 ST NW @ 13 AV NW","status":"ACTIVE","point":{"type":"Point","coordinates":[-114.0845311,51.0636022]},":@computed_region_4a3i_ccfj":"2",":@computed_region_p8tp_5dkv":"7",":@computed_region_4b54_tmc4":"7",":@computed_region_kxmf_bzkv":"40"}
,{"teleride_number":"5283","stop_name":"SB 11 ST SE @ Heritage DR","status":"INACTIVE","point":{"type":"Point","coordinates":[-114.0400956,50.986603]},":@computed_region_4a3i_ccfj":"3",":@computed_region_p8tp_5dkv":"5",":@computed_region_4b54_tmc4":"10",":@computed_region_kxmf_bzkv":"1"}
,{"teleride_number":"4985","stop_name":"WB Martindale BV @ Martinview RD NE","status":"ACTIVE","point":{"type":"Point","coordinates":[-113.962074,51.1131739]},":@computed_region_4a3i_ccfj":"4",":@computed_region_p8tp_5dkv":"1",":@computed_region_4b54_tmc4":"9",":@computed_region_kxmf_bzkv":"180"}
,{"teleride_number":"7757","stop_name":"WB 34 AV SE @ 9 ST SE","status":"INACTIVE","point":{"type":"Point","coordinates":[-114.0411773,51.023123]},":@computed_region_4a3i_ccfj":"3",":@computed_region_p8tp_5dkv":"11",":@computed_region_4b54_tmc4":"10",":@computed_region_kxmf_bzkv":"75"}
,{"teleride_number":"3835","stop_name":"WB Tuscany BV @ Tuscany Springs BV NW","status":"ACTIVE","point":{"type":"Point","coordinates":[-114.2388837,51.1256107]},":@computed_region_4a3i_ccfj":"2",":@computed_region_p8tp_5dkv":"9",":@computed_region_4b54_tmc4":"13",":@computed_region_kxmf_bzkv":"158"}
,{"teleride_number":"2118","stop_name":"WB Mahogany GA @ Mahogany BV SE","status":"ACTIVE","point":{"type":"Point","coordinates":[-113.9376643,50.8997264]},":@computed_region_4a3i_ccfj":"3",":@computed_region_p8tp_5dkv":"8",":@computed_region_4b54_tmc4":"4",":@computed_region_kxmf_bzkv":"116"}
,{"teleride_number":"4510","stop_name":"WB Ogden RD @ 16A ST SE","status":"ACTIVE","point":{"type":"Point","coordinates":[-114.0203684,51.018681]},":@computed_region_4a3i_ccfj":"3",":@computed_region_p8tp_5dkv":"11",":@computed_region_4b54_tmc4":"10",":@computed_region_kxmf_bzkv":"98"}
,{"teleride_number":"7538","stop_name":"EB 64 AV NE @ 54 ST NE","status":"ACTIVE","point":{"type":"Point","coordinates":[-113.9552628,51.1104869]},":@computed_region_4a3i_ccfj":"4",":@computed_region_p8tp_5dkv":"1",":@computed_region_4b54_tmc4":"9",":@computed_region_kxmf_bzkv":"119"}
,{"teleride_number":"7656","stop_name":"SB California BV @ 200 California  PL NE","status":"ACTIVE","point":{"type":"Point","coordinates":[-113.926644,51.0719042]},":@computed_region_4a3i_ccfj":"4",":@computed_region_p8tp_5dkv":"3",":@computed_region_4b54_tmc4":"9",":@computed_region_kxmf_bzkv":"161"}
,{"teleride_number":"6532","stop_name":"West Hillhurst Shelter (2507 Bowness Rd)","status":"INACTIVE","point":{"type":"Point","coordinates":[-114.1184372,51.051107]},":@computed_region_4a3i_ccfj":"2",":@computed_region_p8tp_5dkv":"7",":@computed_region_4b54_tmc4":"7",":@computed_region_kxmf_bzkv":"280"}
,{"teleride_number":"7375","stop_name":"SB Mount McKenzie DR @ Mount McKenzie BA SE","status":"ACTIVE","point":{"type":"Point","coordinates":[-113.9826524,50.9296501]},":@computed_region_4a3i_ccfj":"3",":@computed_region_p8tp_5dkv":"13",":@computed_region_4b54_tmc4":"4",":@computed_region_kxmf_bzkv":"296"}
,{"teleride_number":"8257","stop_name":"SB Cranston DR @ Cranfield PA SE","status":"ACTIVE","point":{"type":"Point","coordinates":[-113.9789234,50.8920976]},":@computed_region_4a3i_ccfj":"3",":@computed_region_p8tp_5dkv":"8",":@computed_region_4b54_tmc4":"4",":@computed_region_kxmf_bzkv":"294"}
,{"teleride_number":"4620","stop_name":"EB 12 AV SW @ 16 ST SW","status":"ACTIVE","point":{"type":"Point","coordinates":[-114.0986756,51.0423596]},":@computed_region_4a3i_ccfj":"1",":@computed_region_p8tp_5dkv":"2",":@computed_region_4b54_tmc4":"14",":@computed_region_kxmf_bzkv":"136"}
,{"teleride_number":"7791","stop_name":"SB Laguna WY @ Anaheim GD NE","status":"ACTIVE","point":{"type":"Point","coordinates":[-113.9273678,51.0879076]},":@computed_region_4a3i_ccfj":"4",":@computed_region_p8tp_5dkv":"3",":@computed_region_4b54_tmc4":"9",":@computed_region_kxmf_bzkv":"161"}
,{"teleride_number":"6889","stop_name":"SB  Edgevalley DR @ Edgeview DR NW","status":"ACTIVE","point":{"type":"Point","coordinates":[-114.1457969,51.1287529]},":@computed_region_4a3i_ccfj":"2",":@computed_region_p8tp_5dkv":"4",":@computed_region_4b54_tmc4":"2",":@computed_region_kxmf_bzkv":"272"}
,{"teleride_number":"8979","stop_name":"WB Northmount DR @ Chatham DR NW","status":"ACTIVE","point":{"type":"Point","coordinates":[-114.1155844,51.0889739]},":@computed_region_4a3i_ccfj":"2",":@computed_region_p8tp_5dkv":"4",":@computed_region_4b54_tmc4":"7",":@computed_region_kxmf_bzkv":"125"}
,{"teleride_number":"9455","stop_name":"SB Douglas Glen BV @ Douglas Glen ME SE","status":"ACTIVE","point":{"type":"Point","coordinates":[-114.0055186,50.9514677]},":@computed_region_4a3i_ccfj":"3",":@computed_region_p8tp_5dkv":"8",":@computed_region_4b54_tmc4":"4",":@computed_region_kxmf_bzkv":"268"}
,{"teleride_number":"7923","stop_name":"EB 17 AV SW @ 9 ST SW","status":"ACTIVE","point":{"type":"Point","coordinates":[-114.0837584,51.0377496]},":@computed_region_4a3i_ccfj":"1",":@computed_region_p8tp_5dkv":"2",":@computed_region_4b54_tmc4":"14",":@computed_region_kxmf_bzkv":"16"}
,{"teleride_number":"4947","stop_name":"SB 52 ST SE @ 17 AV SE","status":"ACTIVE","point":{"type":"Point","coordinates":[-113.9585716,51.0370296]},":@computed_region_4a3i_ccfj":"3",":@computed_region_p8tp_5dkv":"11",":@computed_region_4b54_tmc4":"12",":@computed_region_kxmf_bzkv":"97"}
,{"teleride_number":"7259","stop_name":"SB Midpark BV @ Midlake BV SE","status":"ACTIVE","point":{"type":"Point","coordinates":[-114.0613924,50.9143084]},":@computed_region_4a3i_ccfj":"3",":@computed_region_p8tp_5dkv":"13",":@computed_region_4b54_tmc4":"6",":@computed_region_kxmf_bzkv":"263"}
,{"teleride_number":"6520","stop_name":"Richmond RD Terminal NB","status":"INACTIVE","point":{"type":"Point","coordinates":[-114.1604401,51.0186367]},":@computed_region_4a3i_ccfj":"1",":@computed_region_p8tp_5dkv":"14",":@computed_region_4b54_tmc4":"1",":@computed_region_kxmf_bzkv":"298"}
,{"teleride_number":"2497","stop_name":"Anderson LRT Station","status":"INACTIVE","point":{"type":"Point","coordinates":[-114.0741656,50.9543155]},":@computed_region_4a3i_ccfj":"1",":@computed_region_p8tp_5dkv":"5",":@computed_region_4b54_tmc4":"8",":@computed_region_kxmf_bzkv":"7"}
,{"teleride_number":"7547","stop_name":"EB 78 AV NE @ Aerial PL","status":"INACTIVE","point":{"type":"Point","coordinates":[-114.0080835,51.1223127]},":@computed_region_4a3i_ccfj":"4",":@computed_region_p8tp_5dkv":"1",":@computed_region_4b54_tmc4":"11",":@computed_region_kxmf_bzkv":"86"}
,{"teleride_number":"6592","stop_name":"Whitehorn LRT Station (SB 36 ST NE @ 37 AV NE)","status":"INACTIVE","point":{"type":"Point","coordinates":[-113.9820994,51.086573]},":@computed_region_4a3i_ccfj":"4",":@computed_region_p8tp_5dkv":"3",":@computed_region_4b54_tmc4":"9",":@computed_region_kxmf_bzkv":"71"}
,{"teleride_number":"9620","stop_name":"SB Copperfield BV @ McIvor BV SE","status":"ACTIVE","point":{"type":"Point","coordinates":[-113.9433752,50.9134707]},":@computed_region_4a3i_ccfj":"3",":@computed_region_p8tp_5dkv":"8",":@computed_region_4b54_tmc4":"4",":@computed_region_kxmf_bzkv":"96"}
,{"teleride_number":"6715","stop_name":"EB 26 AV NE @ Rundlehill DR East leg","status":"ACTIVE","point":{"type":"Point","coordinates":[-113.9655804,51.077114]},":@computed_region_4a3i_ccfj":"4",":@computed_region_p8tp_5dkv":"3",":@computed_region_4b54_tmc4":"9",":@computed_region_kxmf_bzkv":"34"}
,{"teleride_number":"4312","stop_name":"NB Panorama Hills DR @ Panorama Hills ME NW","status":"ACTIVE","point":{"type":"Point","coordinates":[-114.0855562,51.1521725]},":@computed_region_4a3i_ccfj":"2",":@computed_region_p8tp_5dkv":"12",":@computed_region_4b54_tmc4":"11",":@computed_region_kxmf_bzkv":"235"}
,{"teleride_number":"8568","stop_name":"WB Zoo CTrain Station","status":"ACTIVE","point":{"type":"Point","coordinates":[-114.0255305,51.0474077]},":@computed_region_4a3i_ccfj":"4",":@computed_region_p8tp_5dkv":"11",":@computed_region_4b54_tmc4":"10",":@computed_region_kxmf_bzkv":"137"}
,{"teleride_number":"9893","stop_name":"EB Tuscany Springs BV @ Tusslewood DR NW","status":"ACTIVE","point":{"type":"Point","coordinates":[-114.2536489,51.138371]},":@computed_region_4a3i_ccfj":"2",":@computed_region_p8tp_5dkv":"9",":@computed_region_4b54_tmc4":"13",":@computed_region_kxmf_bzkv":"158"}
,{"teleride_number":"6855","stop_name":"EB 5 AV SW @ 7 ST SW","status":"ACTIVE","point":{"type":"Point","coordinates":[-114.0788566,51.0487628]},":@computed_region_4a3i_ccfj":"1",":@computed_region_p8tp_5dkv":"2",":@computed_region_4b54_tmc4":"14",":@computed_region_kxmf_bzkv":"262"}
,{"teleride_number":"9557","stop_name":"NB Saddlemont BV @ Saddlefield DR NE","status":"ACTIVE","point":{"type":"Point","coordinates":[-113.9380044,51.1296631]},":@computed_region_4a3i_ccfj":"4",":@computed_region_p8tp_5dkv":"1",":@computed_region_4b54_tmc4":"11",":@computed_region_kxmf_bzkv":"2"}
,{"teleride_number":"8932","stop_name":"WB Sirocco DR @ Signal Hill DR SW","status":"ACTIVE","point":{"type":"Point","coordinates":[-114.1707514,51.0326669]},":@computed_region_4a3i_ccfj":"1",":@computed_region_p8tp_5dkv":"14",":@computed_region_4b54_tmc4":"1",":@computed_region_kxmf_bzkv":"278"}
,{"teleride_number":"5760","stop_name":"SB @ Glenmore Auxiliary Hospital","status":"ACTIVE","point":{"type":"Point","coordinates":[-114.0984705,50.9920354]},":@computed_region_4a3i_ccfj":"1",":@computed_region_p8tp_5dkv":"5",":@computed_region_4b54_tmc4":"8",":@computed_region_kxmf_bzkv":"58"}
,{"teleride_number":"5644","stop_name":"WB 6 AV SW @ 4 ST SW","status":"INACTIVE","point":{"type":"Point","coordinates":[-114.0725389,51.047795]},":@computed_region_4a3i_ccfj":"1",":@computed_region_p8tp_5dkv":"2",":@computed_region_4b54_tmc4":"14",":@computed_region_kxmf_bzkv":"262"}
,{"teleride_number":"5442","stop_name":"WB 1 AV NE@ 10 ST NE","status":"ACTIVE","point":{"type":"Point","coordinates":[-114.0381965,51.0533065]},":@computed_region_4a3i_ccfj":"4",":@computed_region_p8tp_5dkv":"11",":@computed_region_4b54_tmc4":"10",":@computed_region_kxmf_bzkv":"137"}
,{"teleride_number":"2530","stop_name":"NB 60 ST NE @ Country Hills BV","status":"INACTIVE","point":{"type":"Point","coordinates":[-113.9467676,51.1545216]},":@computed_region_4a3i_ccfj":"4",":@computed_region_p8tp_5dkv":"1",":@computed_region_4b54_tmc4":"11",":@computed_region_kxmf_bzkv":"12"}
,{"teleride_number":"6345","stop_name":"NB 37 ST SW @ 23 AV SW","status":"ACTIVE","point":{"type":"Point","coordinates":[-114.1410594,51.0334729]},":@computed_region_4a3i_ccfj":"1",":@computed_region_p8tp_5dkv":"2",":@computed_region_4b54_tmc4":"14",":@computed_region_kxmf_bzkv":"182"}
,{"teleride_number":"4003","stop_name":"Dalhousie LRT Station NB","status":"ACTIVE","point":{"type":"Point","coordinates":[-114.1582441,51.1041321]},":@computed_region_4a3i_ccfj":"2",":@computed_region_p8tp_5dkv":"4",":@computed_region_4b54_tmc4":"7",":@computed_region_kxmf_bzkv":"38"}
,{"teleride_number":"4958","stop_name":"NB 30 ST SE @ 72 AV SE","status":"INACTIVE","point":{"type":"Point","coordinates":[-113.9840801,50.9902513]},":@computed_region_4a3i_ccfj":"3",":@computed_region_p8tp_5dkv":"11",":@computed_region_4b54_tmc4":"10",":@computed_region_kxmf_bzkv":"159"}
,{"teleride_number":"4825","stop_name":"SB Fairmount DR @ 90 AV SE","status":"ACTIVE","point":{"type":"Point","coordinates":[-114.0592566,50.9718318]},":@computed_region_4a3i_ccfj":"3",":@computed_region_p8tp_5dkv":"5",":@computed_region_4b54_tmc4":"10",":@computed_region_kxmf_bzkv":"174"}
,{"teleride_number":"6541","stop_name":"WB 49 AV SW @ 45 ST SW","status":"INACTIVE","point":{"type":"Point","coordinates":[-114.1524454,51.0094742]},":@computed_region_4a3i_ccfj":"1",":@computed_region_p8tp_5dkv":"14",":@computed_region_4b54_tmc4":"1",":@computed_region_kxmf_bzkv":"142"}
,{"teleride_number":"5715","stop_name":"EB 32 AV NE @ 19 ST NE","status":"ACTIVE","point":{"type":"Point","coordinates":[-114.0107273,51.0813725]},":@computed_region_4a3i_ccfj":"4",":@computed_region_p8tp_5dkv":"3",":@computed_region_4b54_tmc4":"9",":@computed_region_kxmf_bzkv":"106"}
,{"teleride_number":"9590","stop_name":"WB Country Hills DR @ Country Hills RI NW","status":"ACTIVE","point":{"type":"Point","coordinates":[-114.0676738,51.1508976]},":@computed_region_4a3i_ccfj":"2",":@computed_region_p8tp_5dkv":"12",":@computed_region_4b54_tmc4":"2",":@computed_region_kxmf_bzkv":"172"}
,{"teleride_number":"7774","stop_name":"SB Sirocco DR @ 17 AV SW","status":"ACTIVE","point":{"type":"Point","coordinates":[-114.1696143,51.0370468]},":@computed_region_4a3i_ccfj":"1",":@computed_region_p8tp_5dkv":"14",":@computed_region_4b54_tmc4":"1",":@computed_region_kxmf_bzkv":"278"}
,{"teleride_number":"7708","stop_name":"SB Hamptons BV @ Hampshire CL NW","status":"ACTIVE","point":{"type":"Point","coordinates":[-114.1571708,51.1395269]},":@computed_region_4a3i_ccfj":"2",":@computed_region_p8tp_5dkv":"10",":@computed_region_4b54_tmc4":"3",":@computed_region_kxmf_bzkv":"286"}
,{"teleride_number":"7759","stop_name":"Falshire Drive Station (SB)","status":"ACTIVE","point":{"type":"Point","coordinates":[-113.9502559,51.1065164]},":@computed_region_4a3i_ccfj":"4",":@computed_region_p8tp_5dkv":"1",":@computed_region_4b54_tmc4":"9",":@computed_region_kxmf_bzkv":"119"}
,{"teleride_number":"2700","stop_name":"NB Sheriff King ST @ N of 194 AV SW","status":"ACTIVE","point":{"type":"Point","coordinates":[-114.0704716,50.8785008]},":@computed_region_4a3i_ccfj":"3",":@computed_region_p8tp_5dkv":"6",":@computed_region_4b54_tmc4":"6",":@computed_region_kxmf_bzkv":"134"}
,{"teleride_number":"2891","stop_name":"Canyon Meadows LRT Station NB","status":"ACTIVE","point":{"type":"Point","coordinates":[-114.0674512,50.9368549]},":@computed_region_4a3i_ccfj":"3",":@computed_region_p8tp_5dkv":"13",":@computed_region_4b54_tmc4":"6",":@computed_region_kxmf_bzkv":"267"}
,{"teleride_number":"3495","stop_name":"Alberta Children's Hospital Station (SB)","status":"ACTIVE","point":{"type":"Point","coordinates":[-114.1458935,51.0753268]},":@computed_region_4a3i_ccfj":"2",":@computed_region_p8tp_5dkv":"7",":@computed_region_4b54_tmc4":"13",":@computed_region_kxmf_bzkv":"155"}
,{"teleride_number":"6685","stop_name":"EB 26 AV SE @ 28 ST SE","status":"ACTIVE","point":{"type":"Point","coordinates":[-113.9912832,51.0304562]},":@computed_region_4a3i_ccfj":"3",":@computed_region_p8tp_5dkv":"11",":@computed_region_4b54_tmc4":"10",":@computed_region_kxmf_bzkv":"196"}
,{"teleride_number":"3726","stop_name":"SB Sierra Morena BV @ S Morena CL SW","status":"ACTIVE","point":{"type":"Point","coordinates":[-114.1762768,51.0145234]},":@computed_region_4a3i_ccfj":"1",":@computed_region_p8tp_5dkv":"14",":@computed_region_4b54_tmc4":"1",":@computed_region_kxmf_bzkv":"278"}
,{"teleride_number":"6950","stop_name":"EB Heritage DR @ 5 ST SW","status":"ACTIVE","point":{"type":"Point","coordinates":[-114.0792477,50.9794938]},":@computed_region_4a3i_ccfj":"1",":@computed_region_p8tp_5dkv":"5",":@computed_region_4b54_tmc4":"8",":@computed_region_kxmf_bzkv":"195"}
,{"teleride_number":"5348","stop_name":"SB 20 ST SW@ 50 AV SW","status":"ACTIVE","point":{"type":"Point","coordinates":[-114.1092627,51.00826]},":@computed_region_4a3i_ccfj":"1",":@computed_region_p8tp_5dkv":"5",":@computed_region_4b54_tmc4":"8",":@computed_region_kxmf_bzkv":"122"}
,{"teleride_number":"6666","stop_name":"NB Centre ST N @ 8 AV N","status":"ACTIVE","point":{"type":"Point","coordinates":[-114.0623956,51.0601511]},":@computed_region_4a3i_ccfj":"4",":@computed_region_p8tp_5dkv":"7",":@computed_region_4b54_tmc4":"7",":@computed_region_kxmf_bzkv":"266"}
,{"teleride_number":"8122","stop_name":"SB 36 ST NE @ 5 AV NE","status":"INACTIVE","point":{"type":"Point","coordinates":[-113.9820697,51.0557985]},":@computed_region_4a3i_ccfj":"4",":@computed_region_p8tp_5dkv":"3",":@computed_region_4b54_tmc4":"12",":@computed_region_kxmf_bzkv":"84"}
,{"teleride_number":"9761","stop_name":"WB Hidden Valley DR @ Hidden Hills TC NW","status":"ACTIVE","point":{"type":"Point","coordinates":[-114.1304233,51.1496038]},":@computed_region_4a3i_ccfj":"2",":@computed_region_p8tp_5dkv":"12",":@computed_region_4b54_tmc4":"2",":@computed_region_kxmf_bzkv":"25"}
,{"teleride_number":"7141","stop_name":"NB Silver Ridge DR @ Silver Mead RD NW","status":"ACTIVE","point":{"type":"Point","coordinates":[-114.19773,51.1067768]},":@computed_region_4a3i_ccfj":"2",":@computed_region_p8tp_5dkv":"9",":@computed_region_4b54_tmc4":"13",":@computed_region_kxmf_bzkv":"147"}
,{"teleride_number":"9197","stop_name":"WB Arbour Lake RD @ Arbour Grove CL NW","status":"ACTIVE","point":{"type":"Point","coordinates":[-114.2096511,51.1268411]},":@computed_region_4a3i_ccfj":"2",":@computed_region_p8tp_5dkv":"10",":@computed_region_4b54_tmc4":"3",":@computed_region_kxmf_bzkv":"244"}
,{"teleride_number":"6816","stop_name":"NB University CTrain Station","status":"ACTIVE","point":{"type":"Point","coordinates":[-114.1229957,51.0802518]},":@computed_region_4a3i_ccfj":"2",":@computed_region_p8tp_5dkv":"7",":@computed_region_4b54_tmc4":"7",":@computed_region_kxmf_bzkv":"153"}
,{"teleride_number":"9109","stop_name":"EB Woodpark BV @ Woodfield RD SW","status":"ACTIVE","point":{"type":"Point","coordinates":[-114.1237759,50.9359794]},":@computed_region_4a3i_ccfj":"1",":@computed_region_p8tp_5dkv":"6",":@computed_region_4b54_tmc4":"5",":@computed_region_kxmf_bzkv":"43"}
,{"teleride_number":"8176","stop_name":"SB Sherwood BV @ Sherwood ST NW","status":"ACTIVE","point":{"type":"Point","coordinates":[-114.1507828,51.1631235]},":@computed_region_4a3i_ccfj":"2",":@computed_region_p8tp_5dkv":"10",":@computed_region_4b54_tmc4":"3",":@computed_region_kxmf_bzkv":"292"}
,{"teleride_number":"7722","stop_name":"WB 50 AV SW @ 1 ST SW","status":"ACTIVE","point":{"type":"Point","coordinates":[-114.0665282,51.0087862]},":@computed_region_4a3i_ccfj":"1",":@computed_region_p8tp_5dkv":"11",":@computed_region_4b54_tmc4":"10",":@computed_region_kxmf_bzkv":"124"}
,{"teleride_number":"2639","stop_name":"NB Cornerstone BV @ Cornerstone CI NE","status":"INACTIVE","point":{"type":"Point","coordinates":[-113.9378991,51.1630156]},":@computed_region_4a3i_ccfj":"4",":@computed_region_p8tp_5dkv":"1",":@computed_region_4b54_tmc4":"11",":@computed_region_kxmf_bzkv":"11"}
,{"teleride_number":"6085","stop_name":"EB Silver Springs GA@ Silver Springs BV NW","status":"ACTIVE","point":{"type":"Point","coordinates":[-114.1881756,51.1034171]},":@computed_region_4a3i_ccfj":"2",":@computed_region_p8tp_5dkv":"9",":@computed_region_4b54_tmc4":"13",":@computed_region_kxmf_bzkv":"147"}
,{"teleride_number":"9415","stop_name":"NB Russet RD @ Regal CR NE","status":"ACTIVE","point":{"type":"Point","coordinates":[-114.0425153,51.0636881]},":@computed_region_4a3i_ccfj":"4",":@computed_region_p8tp_5dkv":"11",":@computed_region_4b54_tmc4":"10",":@computed_region_kxmf_bzkv":"171"}
,{"teleride_number":"5468","stop_name":"WB 96 AV NE @ Harvest Hills LI","status":"ACTIVE","point":{"type":"Point","coordinates":[-114.0553774,51.1411727]},":@computed_region_4a3i_ccfj":"4",":@computed_region_p8tp_5dkv":"12",":@computed_region_4b54_tmc4":"11",":@computed_region_kxmf_bzkv":"27"}
,{"teleride_number":"3920","stop_name":"SB Silverado BV @ Silverado Ranch WY SW","status":"ACTIVE","point":{"type":"Point","coordinates":[-114.0872485,50.8851114]},":@computed_region_4a3i_ccfj":"1",":@computed_region_p8tp_5dkv":"6",":@computed_region_4b54_tmc4":"6",":@computed_region_kxmf_bzkv":"134"}
,{"teleride_number":"9493","stop_name":"NB 40 ST SE @ 116 AV SE","status":"ACTIVE","point":{"type":"Point","coordinates":[-113.9778604,50.9475704]},":@computed_region_4a3i_ccfj":"3",":@computed_region_p8tp_5dkv":"8",":@computed_region_4b54_tmc4":"4",":@computed_region_kxmf_bzkv":"79"}
,{"teleride_number":"4496","stop_name":"WB Temple DR @ Templemont DR NE","status":"ACTIVE","point":{"type":"Point","coordinates":[-113.9494569,51.0923364]},":@computed_region_4a3i_ccfj":"4",":@computed_region_p8tp_5dkv":"3",":@computed_region_4b54_tmc4":"9",":@computed_region_kxmf_bzkv":"22"}
,{"teleride_number":"3576","stop_name":"NB Chaparral Valley DR @ Chaparral Valley GV SE","status":"ACTIVE","point":{"type":"Point","coordinates":[-114.0151475,50.8841808]},":@computed_region_4a3i_ccfj":"3",":@computed_region_p8tp_5dkv":"13",":@computed_region_4b54_tmc4":"6",":@computed_region_kxmf_bzkv":"130"}
,{"teleride_number":"7751","stop_name":"NB 12 ST SE @ Highfield CR","status":"INACTIVE","point":{"type":"Point","coordinates":[-114.0350947,51.0122827]},":@computed_region_4a3i_ccfj":"3",":@computed_region_p8tp_5dkv":"11",":@computed_region_4b54_tmc4":"10",":@computed_region_kxmf_bzkv":"75"}
,{"teleride_number":"7710","stop_name":"NB McCall WY @ 78 AV NE","status":"INACTIVE","point":{"type":"Point","coordinates":[-114.00157,51.1229103]},":@computed_region_4a3i_ccfj":"4",":@computed_region_p8tp_5dkv":"1",":@computed_region_4b54_tmc4":"11",":@computed_region_kxmf_bzkv":"86"}
,{"teleride_number":"9222","stop_name":"EB Millrise DR @ Millbank CO SW","status":"ACTIVE","point":{"type":"Point","coordinates":[-114.0780041,50.9164707]},":@computed_region_4a3i_ccfj":"1",":@computed_region_p8tp_5dkv":"6",":@computed_region_4b54_tmc4":"5",":@computed_region_kxmf_bzkv":"156"}
,{"teleride_number":"5043","stop_name":"EB Kensington RD @ 16 ST NW","status":"ACTIVE","point":{"type":"Point","coordinates":[-114.0973776,51.0524357]},":@computed_region_4a3i_ccfj":"2",":@computed_region_p8tp_5dkv":"7",":@computed_region_4b54_tmc4":"7",":@computed_region_kxmf_bzkv":"40"}
,{"teleride_number":"7054","stop_name":"WB Northmount DR @ Benson RD NW","status":"ACTIVE","point":{"type":"Point","coordinates":[-114.1313683,51.0942467]},":@computed_region_4a3i_ccfj":"2",":@computed_region_p8tp_5dkv":"4",":@computed_region_4b54_tmc4":"7",":@computed_region_kxmf_bzkv":"50"}
,{"teleride_number":"9953","stop_name":"Sirocco Park N Ride Terminal","status":"INACTIVE","point":{"type":"Point","coordinates":[-114.1668205,51.0379415]},":@computed_region_4a3i_ccfj":"1",":@computed_region_p8tp_5dkv":"14",":@computed_region_4b54_tmc4":"1",":@computed_region_kxmf_bzkv":"278"}
,{"teleride_number":"6190","stop_name":"NB 65 ST SE @ 17 AV SE","status":"INACTIVE","point":{"type":"Point","coordinates":[-113.9391266,51.0387523]},":@computed_region_4a3i_ccfj":"3",":@computed_region_p8tp_5dkv":"11",":@computed_region_4b54_tmc4":"12",":@computed_region_kxmf_bzkv":"103"}
,{"teleride_number":"3711","stop_name":"Westbrook LRT Station","status":"INACTIVE","point":{"type":"Point","coordinates":[-114.1355883,51.040415]},":@computed_region_4a3i_ccfj":"1",":@computed_region_p8tp_5dkv":"2",":@computed_region_4b54_tmc4":"14",":@computed_region_kxmf_bzkv":"281"}
,{"teleride_number":"6197","stop_name":"EB Berkshire BV @ Beddington BV NW","status":"ACTIVE","point":{"type":"Point","coordinates":[-114.0881545,51.133852]},":@computed_region_4a3i_ccfj":"2",":@computed_region_p8tp_5dkv":"4",":@computed_region_4b54_tmc4":"2",":@computed_region_kxmf_bzkv":"273"}
,{"teleride_number":"9162","stop_name":"SB Lake Michigan DR @ Lake Sylvan DR SE","status":"ACTIVE","point":{"type":"Point","coordinates":[-114.0313189,50.9423583]},":@computed_region_4a3i_ccfj":"3",":@computed_region_p8tp_5dkv":"13",":@computed_region_4b54_tmc4":"6",":@computed_region_kxmf_bzkv":"175"}
,{"teleride_number":"8377","stop_name":"EB Hamptons BV @ Hamptons TC NW","status":"ACTIVE","point":{"type":"Point","coordinates":[-114.146672,51.1435345]},":@computed_region_4a3i_ccfj":"2",":@computed_region_p8tp_5dkv":"10",":@computed_region_4b54_tmc4":"3",":@computed_region_kxmf_bzkv":"286"}
,{"teleride_number":"2212","stop_name":"WB Legacy CI @ Legacy CM SE","status":"ACTIVE","point":{"type":"Point","coordinates":[-114.012454,50.8609448]},":@computed_region_4a3i_ccfj":"3",":@computed_region_p8tp_5dkv":"13",":@computed_region_4b54_tmc4":"6",":@computed_region_kxmf_bzkv":"99"}
,{"teleride_number":"3662","stop_name":"EB Pegasus RD @ Pegasus WY NE (proposed)","status":"INACTIVE","point":{"type":"Point","coordinates":[-114.0046051,51.0944112]},":@computed_region_4a3i_ccfj":"4",":@computed_region_p8tp_5dkv":"1",":@computed_region_4b54_tmc4":"11",":@computed_region_kxmf_bzkv":"82"}
,{"teleride_number":"6456","stop_name":"SB 45 ST SE @ South Health Campus","status":"ACTIVE","point":{"type":"Point","coordinates":[-113.9488378,50.882545]},":@computed_region_4a3i_ccfj":"3",":@computed_region_p8tp_5dkv":"8",":@computed_region_4b54_tmc4":"4",":@computed_region_kxmf_bzkv":"90"}
,{"teleride_number":"9935","stop_name":"Douglas Glen Boulevard Station (NB)","status":"ACTIVE","point":{"type":"Point","coordinates":[-114.0077766,50.957502]},":@computed_region_4a3i_ccfj":"3",":@computed_region_p8tp_5dkv":"8",":@computed_region_4b54_tmc4":"4",":@computed_region_kxmf_bzkv":"268"}
,{"teleride_number":"9697","stop_name":"WB Panatella BV @ Harvest Hills BV NW","status":"ACTIVE","point":{"type":"Point","coordinates":[-114.0716058,51.1647744]},":@computed_region_4a3i_ccfj":"2",":@computed_region_p8tp_5dkv":"12",":@computed_region_4b54_tmc4":"11",":@computed_region_kxmf_bzkv":"235"}
,{"teleride_number":"9441","stop_name":"WB 23 AV NE @ 32 ST NE","status":"ACTIVE","point":{"type":"Point","coordinates":[-113.989491,51.0728215]},":@computed_region_4a3i_ccfj":"4",":@computed_region_p8tp_5dkv":"3",":@computed_region_4b54_tmc4":"9",":@computed_region_kxmf_bzkv":"83"}
,{"teleride_number":"8316","stop_name":"WB Queensland PL @ Queensland DR SE","status":"ACTIVE","point":{"type":"Point","coordinates":[-114.0258279,50.9396099]},":@computed_region_4a3i_ccfj":"3",":@computed_region_p8tp_5dkv":"13",":@computed_region_4b54_tmc4":"6",":@computed_region_kxmf_bzkv":"215"}
,{"teleride_number":"7015","stop_name":"NB 6 ST SW @ 130 AV SW","status":"ACTIVE","point":{"type":"Point","coordinates":[-114.0756146,50.9366406]},":@computed_region_4a3i_ccfj":"1",":@computed_region_p8tp_5dkv":"6",":@computed_region_4b54_tmc4":"5",":@computed_region_kxmf_bzkv":"283"}
,{"teleride_number":"5151","stop_name":"NB Centre ST N @ 19 AV N","status":"ACTIVE","point":{"type":"Point","coordinates":[-114.0623964,51.0700545]},":@computed_region_4a3i_ccfj":"4",":@computed_region_p8tp_5dkv":"7",":@computed_region_4b54_tmc4":"10",":@computed_region_kxmf_bzkv":"69"}
,{"teleride_number":"5400","stop_name":"WB 5 AV NW@ 19 ST NW","status":"ACTIVE","point":{"type":"Point","coordinates":[-114.106192,51.0573228]},":@computed_region_4a3i_ccfj":"2",":@computed_region_p8tp_5dkv":"7",":@computed_region_4b54_tmc4":"7",":@computed_region_kxmf_bzkv":"280"}
,{"teleride_number":"9370","stop_name":"SB 69 ST SW @ Springbank GA","status":"ACTIVE","point":{"type":"Point","coordinates":[-114.1891083,51.0204457]},":@computed_region_4a3i_ccfj":"1",":@computed_region_p8tp_5dkv":"14",":@computed_region_4b54_tmc4":"1",":@computed_region_kxmf_bzkv":"289"}
,{"teleride_number":"4485","stop_name":"WB Dover Ridge DR @ Dover Meadow CL SE","status":"ACTIVE","point":{"type":"Point","coordinates":[-113.9790201,51.0211805]},":@computed_region_4a3i_ccfj":"3",":@computed_region_p8tp_5dkv":"11",":@computed_region_4b54_tmc4":"10",":@computed_region_kxmf_bzkv":"196"}
,{"teleride_number":"9225","stop_name":"EB Midridge DR @ Midcrest CR SE","status":"ACTIVE","point":{"type":"Point","coordinates":[-114.0597739,50.9194398]},":@computed_region_4a3i_ccfj":"3",":@computed_region_p8tp_5dkv":"13",":@computed_region_4b54_tmc4":"6",":@computed_region_kxmf_bzkv":"263"}
,{"teleride_number":"9047","stop_name":"NB Beddington BV @ Bermuda DR NW","status":"INACTIVE","point":{"type":"Point","coordinates":[-114.0870134,51.1322225]},":@computed_region_4a3i_ccfj":"2",":@computed_region_p8tp_5dkv":"4",":@computed_region_4b54_tmc4":"2",":@computed_region_kxmf_bzkv":"273"}
,{"teleride_number":"9445","stop_name":"NB Sunridge WY @ 23 AV NE","status":"ACTIVE","point":{"type":"Point","coordinates":[-113.9982912,51.0723014]},":@computed_region_4a3i_ccfj":"4",":@computed_region_p8tp_5dkv":"3",":@computed_region_4b54_tmc4":"9",":@computed_region_kxmf_bzkv":"83"}
,{"teleride_number":"7205","stop_name":"SB Edgemont BV @ Edgepark BV NW","status":"ACTIVE","point":{"type":"Point","coordinates":[-114.1517221,51.1244541]},":@computed_region_4a3i_ccfj":"2",":@computed_region_p8tp_5dkv":"4",":@computed_region_4b54_tmc4":"2",":@computed_region_kxmf_bzkv":"272"}
,{"teleride_number":"7221","stop_name":"SB Hawkwood DR @ Hawkdale GA NW","status":"ACTIVE","point":{"type":"Point","coordinates":[-114.1836978,51.1300592]},":@computed_region_4a3i_ccfj":"2",":@computed_region_p8tp_5dkv":"10",":@computed_region_4b54_tmc4":"3",":@computed_region_kxmf_bzkv":"248"}
,{"teleride_number":"2907","stop_name":"EB University AV @ Shaganappi TR NW","status":"ACTIVE","point":{"type":"Point","coordinates":[-114.151194,51.0766668]},":@computed_region_4a3i_ccfj":"2",":@computed_region_p8tp_5dkv":"7",":@computed_region_4b54_tmc4":"13",":@computed_region_kxmf_bzkv":"155"}
,{"teleride_number":"5388","stop_name":"EB 7 ST SE @ MacDonald AV","status":"ACTIVE","point":{"type":"Point","coordinates":[-114.0459007,51.0410166]},":@computed_region_4a3i_ccfj":"3",":@computed_region_p8tp_5dkv":"5",":@computed_region_4b54_tmc4":"14",":@computed_region_kxmf_bzkv":"260"}
,{"teleride_number":"9179","stop_name":"EB Southland DR @ Bradbury DR SW","status":"ACTIVE","point":{"type":"Point","coordinates":[-114.0981546,50.9612379]},":@computed_region_4a3i_ccfj":"1",":@computed_region_p8tp_5dkv":"5",":@computed_region_4b54_tmc4":"8",":@computed_region_kxmf_bzkv":"23"}
,{"teleride_number":"2366","stop_name":"NB 16 ST NE @ 100 AV NE","status":"ACTIVE","point":{"type":"Point","coordinates":[-114.0199995,51.1439494]},":@computed_region_4a3i_ccfj":"4",":@computed_region_p8tp_5dkv":"1",":@computed_region_4b54_tmc4":"11",":@computed_region_kxmf_bzkv":"13"}
,{"teleride_number":"2922","stop_name":"NB 112 AV @ Sarcee TR NW","status":"ACTIVE","point":{"type":"Point","coordinates":[-114.1637586,51.1583976]},":@computed_region_4a3i_ccfj":"2",":@computed_region_p8tp_5dkv":"10",":@computed_region_4b54_tmc4":"3",":@computed_region_kxmf_bzkv":"202"}
,{"teleride_number":"3742","stop_name":"SB 84 ST SE @ 17 AV SE","status":"ACTIVE","point":{"type":"Point","coordinates":[-113.9080258,51.0394701]},":@computed_region_4a3i_ccfj":"3",":@computed_region_p8tp_5dkv":"11",":@computed_region_4b54_tmc4":"12",":@computed_region_kxmf_bzkv":"179"}
,{"teleride_number":"2598","stop_name":"WB 50 AV SE @ 30 St SE.","status":"ACTIVE","point":{"type":"Point","coordinates":[-113.9893834,51.0089585]},":@computed_region_4a3i_ccfj":"3",":@computed_region_p8tp_5dkv":"11",":@computed_region_4b54_tmc4":"10",":@computed_region_kxmf_bzkv":"87"}
,{"teleride_number":"5247","stop_name":"WB Centre AV @ 19 ST E","status":"ACTIVE","point":{"type":"Point","coordinates":[-114.0094329,51.0525195]},":@computed_region_4a3i_ccfj":"4",":@computed_region_p8tp_5dkv":"3",":@computed_region_4b54_tmc4":"12",":@computed_region_kxmf_bzkv":"167"}
,{"teleride_number":"9515","stop_name":"NB Prestwick CI @  Prestwick GA SE","status":"ACTIVE","point":{"type":"Point","coordinates":[-113.9606458,50.9257417]},":@computed_region_4a3i_ccfj":"3",":@computed_region_p8tp_5dkv":"8",":@computed_region_4b54_tmc4":"4",":@computed_region_kxmf_bzkv":"46"}
,{"teleride_number":"8909","stop_name":"NB 42 ST SE @ 110 AV SE","status":"ACTIVE","point":{"type":"Point","coordinates":[-113.9738534,50.9566416]},":@computed_region_4a3i_ccfj":"3",":@computed_region_p8tp_5dkv":"8",":@computed_region_4b54_tmc4":"4",":@computed_region_kxmf_bzkv":"79"}
,{"teleride_number":"9593","stop_name":"SB Tuscany DR @ Tuscany Ridge CR NW","status":"ACTIVE","point":{"type":"Point","coordinates":[-114.2542729,51.1252087]},":@computed_region_4a3i_ccfj":"2",":@computed_region_p8tp_5dkv":"9",":@computed_region_4b54_tmc4":"13",":@computed_region_kxmf_bzkv":"158"}
,{"teleride_number":"7353","stop_name":"NB 19 ST NE @ 39 AV NE","status":"ACTIVE","point":{"type":"Point","coordinates":[-114.0114137,51.0886651]},